,country,region_1,variety,points_median,location,address,point,latitude,longitude,altitude
0,Argentina,Agrelo,Red Blend,92.0,"Agrelo, Argentina","Agrelo, Distrito Agrelo, Departamento Luján de Cuyo, Mendoza, Argentina","(-33.1184629, -68.8859261, 0.0)",-33.1184629,-68.8859261,0.0
1,Argentina,Alto Valle del Río Negro,Sauvignon Blanc,90.0,"Alto Valle del Río Negro, Argentina",,,,,
2,Argentina,Altos de Mendoza,Malbec,86.0,"Altos de Mendoza, Argentina","Altos de Mendoza, Antártida Argentina, Distrito Noroeste, Rosario, Municipio de Rosario, Departamento Rosario, Santa Fe, S2008, Argentina","(-32.9451452, -60.7279173, 0.0)",-32.9451452,-60.7279173,0.0
3,Argentina,Argentina,Torrontés,92.0,"Argentina, Argentina",Argentina,"(-34.9964963, -64.9672817, 0.0)",-34.9964963,-64.9672817,0.0
4,Argentina,Buenos Aires,Sauvignon Blanc,89.0,"Buenos Aires, Argentina","Ciudad Autónoma de Buenos Aires, Argentina","(-34.6075682, -58.4370894, 0.0)",-34.6075682,-58.4370894,0.0
5,Argentina,Cafayate,Torrontés,90.5,"Cafayate, Argentina","Cafayate, Municipio de Cafayate, Cafayate, Salta, A4427AHB, Argentina","(-26.071047, -65.9800655, 0.0)",-26.071047,-65.9800655,0.0
6,Argentina,Calchaquí Valley,White Blend,91.0,"Calchaquí Valley, Argentina","La Calchaquí, Deseado, Santa Cruz, Argentina","(-47.1110925, -68.29781503836338, 0.0)",-47.1110925,-68.29781503836338,0.0
7,Argentina,Catamarca,Cabernet Sauvignon,85.0,"Catamarca, Argentina","Catamarca, Argentina","(-27.1910825, -67.105374, 0.0)",-27.1910825,-67.105374,0.0
8,Argentina,Famatina Valley,Torrontés,88.0,"Famatina Valley, Argentina","Famatina, Departamento Famatina, La Rioja, F5365, Argentina","(-28.9250648, -67.519583, 0.0)",-28.9250648,-67.519583,0.0
9,Argentina,Jujuy,Red Blend,92.0,"Jujuy, Argentina","Jujuy, Argentina","(-23.3161458, -65.7595288, 0.0)",-23.3161458,-65.7595288,0.0
10,Argentina,La Consulta,Tempranillo,91.5,"La Consulta, Argentina","La Consulta, Aconcagua, ¨residente Sarmiento, Godoy Cruz, Departamento Godoy Cruz, Mendoza, M5504GRQ, Argentina","(-32.9252217, -68.8735098, 0.0)",-32.9252217,-68.8735098,0.0
11,Argentina,La Rioja,Torrontés,86.0,"La Rioja, Argentina","La Rioja, Argentina","(-29.9729781, -67.0487944, 0.0)",-29.9729781,-67.0487944,0.0
12,Argentina,Luján de Cuyo,White Blend,93.0,"Luján de Cuyo, Argentina","Luján de Cuyo, Distrito Ciudad de Luján de Cuyo, Departamento Luján de Cuyo, Mendoza, Argentina","(-33.0391408, -68.8799861, 0.0)",-33.0391408,-68.8799861,0.0
13,Argentina,Maipú,White Blend,87.0,"Maipú, Argentina","Maipú, Distrito Ciudad de Maipú, Departamento Maipú, Mendoza, Argentina","(-32.9846244, -68.7882077, 0.0)",-32.9846244,-68.7882077,0.0
14,Argentina,Medrano,Malbec,88.0,"Medrano, Argentina","Medrano - Almagro, Avenida Corrientes, Almagro, Comuna 5, Ciudad Autónoma de Buenos Aires, 1194, Argentina","(-34.6032012, -58.4208126, 0.0)",-34.6032012,-58.4208126,0.0
15,Argentina,Mendoza,White Blend,93.0,"Mendoza, Argentina","Mendoza, Argentina","(-34.78719615, -68.43807123826872, 0.0)",-34.78719615,-68.43807123826872,0.0
16,Argentina,Neuquén,Torrontés,88.0,"Neuquén, Argentina","Neuquén, Argentina","(-38.3695057, -69.832275, 0.0)",-38.3695057,-69.832275,0.0
17,Argentina,Patagonia,White Blend,88.0,"Patagonia, Argentina","Patagonia, Departamento Río Senguer, Chubut, Argentina","(-44.99006975, -70.81731046588706, 0.0)",-44.99006975,-70.81731046588706,0.0
18,Argentina,Pedernal Valley,Malbec-Bonarda,90.0,"Pedernal Valley, Argentina","Pedernal, Sarmiento, San Juan, Argentina","(-32.0676324, -68.8065807, 0.0)",-32.0676324,-68.8065807,0.0
19,Argentina,Perdriel,Malbec,91.0,"Perdriel, Argentina","Perdriel, Villa 26 - Asentamiento Agustín Magaldi, Barracas, Ciudad Autónoma de Buenos Aires, Comuna 4, 1290, Argentina","(-34.6494981, -58.3858927, 0.0)",-34.6494981,-58.3858927,0.0
20,Argentina,Río Negro Valley,Pinot Noir,90.0,"Río Negro Valley, Argentina","Río Negro, Argentina","(-40.4811973, -67.6145911, 0.0)",-40.4811973,-67.6145911,0.0
21,Argentina,Salta,White Blend,90.5,"Salta, Argentina","Salta, Argentina","(-25.1076701, -64.3494964, 0.0)",-25.1076701,-64.3494964,0.0
22,Argentina,San Carlos,Malbec,88.0,"San Carlos, Argentina","San Carlos, Deseado, Santa Cruz, Argentina","(-46.432134500000004, -67.94937405037274, 0.0)",-46.432134500000004,-67.94937405037274,0.0
23,Argentina,San Juan,Viognier,92.0,"San Juan, Argentina","San Juan, Argentina","(-30.7054363, -69.1988222, 0.0)",-30.7054363,-69.1988222,0.0
24,Argentina,San Rafael,Chardonnay,83.5,"San Rafael, Argentina","San Rafael, Distrito Ciudad de San Rafael, Departamento San Rafael, Mendoza, Argentina","(-34.6126025, -68.330514, 0.0)",-34.6126025,-68.330514,0.0
25,Argentina,Tulum Valley,White Blend,86.0,"Tulum Valley, Argentina","Tulum, Villa Flora, Rivadavia, San Juan, 5406, Argentina","(-31.5475153, -68.5667553, 0.0)",-31.5475153,-68.5667553,0.0
26,Argentina,Tupungato,White Blend,91.0,"Tupungato, Argentina","Tupungato, Distrito Ciudad de Tupungato, Departamento Tupungato, Mendoza, 5561, Argentina","(-33.3723648, -69.1479533, 0.0)",-33.3723648,-69.1479533,0.0
27,Argentina,Uco Valley,White Blend,91.0,"Uco Valley, Argentina","UCO, 5862, Soler, Palermo Soho, Palermo, Comuna 14, Ciudad Autónoma de Buenos Aires, 1425, Argentina","(-34.5788471, -58.4353082, 0.0)",-34.5788471,-58.4353082,0.0
28,Argentina,Valle de Uco,Torrontés,92.0,"Valle de Uco, Argentina",,,,,
29,Argentina,Vista Flores,White Blend,88.0,"Vista Flores, Argentina","Vista Flores, Distrito Vista Flores, Departamento Tunuyán, Mendoza, 5565, Argentina","(-33.6509493, -69.1555479, 0.0)",-33.6509493,-69.1555479,0.0
30,Argentina,Zonda Valley,Syrah,86.0,"Zonda Valley, Argentina","Zonda, San Juan, Argentina","(-31.575441, -68.92779263795131, 0.0)",-31.575441,-68.92779263795131,0.0
31,Australia,Adelaide,White Blend,91.0,"Adelaide, Australia","Adelaide, Australia","(-34.9281805, 138.5999312, 0.0)",-34.9281805,138.5999312,0.0
32,Australia,Adelaide Hills,Viognier,90.5,"Adelaide Hills, Australia","Adelaide Hills Council, South Australia, Australia","(-34.901351649999995, 138.8293202817461, 0.0)",-34.901351649999995,138.8293202817461,0.0
33,Australia,Adelaide Plains,Merlot,85.0,"Adelaide Plains, Australia","Adelaide Plains Council, South Australia, Australia","(-34.51260725, 138.44382827949534, 0.0)",-34.51260725,138.44382827949534,0.0
34,Australia,Alpine Valleys,Riesling,87.5,"Alpine Valleys, Australia","Alpine Way, Geehi, Snowy Valleys Council, 2642, Australia","(-36.3859272, 148.1806424, 0.0)",-36.3859272,148.1806424,0.0
35,Australia,Australia,Shiraz-Grenache,89.5,"Australia, Australia",Australia,"(-24.7761086, 134.755, 0.0)",-24.7761086,134.755,0.0
36,Australia,Barossa,White Blend,92.0,"Barossa, Australia","The Barossa Council, South Australia, Australia","(-34.61341495, 138.93854551693641, 0.0)",-34.61341495,138.93854551693641,0.0
37,Australia,Barossa Valley,Zinfandel,95.0,"Barossa Valley, Australia","The Barossa Council, South Australia, Australia","(-34.61341495, 138.93854551693641, 0.0)",-34.61341495,138.93854551693641,0.0
38,Australia,Barossa-Langhorne Creek,Cabernet Sauvignon,89.0,"Barossa-Langhorne Creek, Australia",,,,,
39,Australia,Beechworth,Pinot Noir,89.0,"Beechworth, Australia","Beechworth, Shire of Indigo, Victoria, 3747, Australia","(-36.3594895, 146.6870123, 0.0)",-36.3594895,146.6870123,0.0
40,Australia,Bendigo,White Blend,90.5,"Bendigo, Australia","Bendigo, City of Greater Bendigo, Victoria, 3550, Australia","(-36.7588767, 144.2825931, 0.0)",-36.7588767,144.2825931,0.0
41,Australia,Central Ranges,Shiraz-Cabernet Sauvignon,89.0,"Central Ranges, Australia","Den Ranges, George Town, Tasmania, Australia","(-41.1499965, 147.06718575291913, 0.0)",-41.1499965,147.06718575291913,0.0
42,Australia,Central Victoria,Shiraz,90.0,"Central Victoria, Australia","La Central, 322-326, Coventry Street, South Melbourne, City of Port Phillip, Victoria, 3205, Australia","(-37.8326622, 144.9567877, 0.0)",-37.8326622,144.9567877,0.0
43,Australia,Clare Valley,Syrah,91.0,"Clare Valley, Australia","Clare, Clare and Gilbert Valleys Council, South Australia, 5453, Australia","(-33.8333914, 138.6120042, 0.0)",-33.8333914,138.6120042,0.0
44,Australia,Clare Valley-Coonawarra,Cabernet Sauvignon,89.0,"Clare Valley-Coonawarra, Australia",,,,,
45,Australia,Clare Valley-Eden Valley,Riesling,89.0,"Clare Valley-Eden Valley, Australia",,,,,
46,Australia,Clarendon,Syrah,92.0,"Clarendon, Australia","Clarendon, Sydney, Hawkesbury City Council, 2756, Australia","(-33.6105511, 150.7888909, 0.0)",-33.6105511,150.7888909,0.0
47,Australia,Coonawarra,Shiraz,90.0,"Coonawarra, Australia","Coonawarra, Wattle Range Council, South Australia, 5263, Australia","(-37.2909105, 140.8346628, 0.0)",-37.2909105,140.8346628,0.0
48,Australia,Currency Creek,Shiraz,84.0,"Currency Creek, Australia","Currency Creek, Sydney, Hawkesbury City Council, Australia","(-33.5055894, 150.8740543, 0.0)",-33.5055894,150.8740543,0.0
49,Australia,Currency Creek-McLaren Vale,Grenache,85.0,"Currency Creek-McLaren Vale, Australia",,,,,
50,Australia,Eden Valley,Viognier,93.0,"Eden Valley, Australia","Eden Valley, The Barossa Council, South Australia, 5235, Australia","(-34.6666979, 139.12996486291587, 0.0)",-34.6666979,139.12996486291587,0.0
51,Australia,Fleurieu Peninsula,Red Blend,91.0,"Fleurieu Peninsula, Australia","Fleurieu Peninsula, South Australia, Australia","(-35.5082015, 138.47774189265814, 0.0)",-35.5082015,138.47774189265814,0.0
52,Australia,Frankland River,Shiraz-Viognier,92.0,"Frankland River, Australia","Frankland River, Circular Head, Tasmania, Australia","(-41.1773887, 144.8586326, 0.0)",-41.1773887,144.8586326,0.0
53,Australia,Geelong,Pinot Noir,85.0,"Geelong, Australia","Geelong, City of Greater Geelong, Victoria, VIC 3220, Australia","(-38.1492813, 144.3598269, 0.0)",-38.1492813,144.3598269,0.0
54,Australia,Geographe,Shiraz,90.0,"Geographe, Australia","Geographe, Busselton, Western Australia, Australia","(-33.64019, 115.3748, 0.0)",-33.64019,115.3748,0.0
55,Australia,Gippsland,Shiraz,88.0,"Gippsland, Australia","Gippsland, Shire of Wellington, Victoria, Australia","(-37.87437, 146.91145036930226, 0.0)",-37.87437,146.91145036930226,0.0
56,Australia,Goulburn Valley,Marsanne-Roussanne,87.0,"Goulburn Valley, Australia","Goulburn, Goulburn Mulwaree Council, New South Wales, 2580, Australia","(-34.7523871, 149.7198009, 0.0)",-34.7523871,149.7198009,0.0
57,Australia,Grampians,Shiraz,92.0,"Grampians, Australia","Grampians, Rural City of Horsham, Victoria, Australia","(-36.718805, 142.22095086226386, 0.0)",-36.718805,142.22095086226386,0.0
58,Australia,Great Southern,Shiraz-Viognier,91.0,"Great Southern, Australia","Great Southern Stand, Premiership Alley, East Melbourne, City of Melbourne, Victoria, 3002, Australia","(-37.82033745, 144.9846468228755, 0.0)",-37.82033745,144.9846468228755,0.0
59,Australia,Gundagai,Shiraz,87.0,"Gundagai, Australia","Cootamundra-Gundagai Regional Council, Australia","(-34.80940095, 148.10881410677436, 0.0)",-34.80940095,148.10881410677436,0.0
60,Australia,Heathcote,Shiraz-Malbec,93.0,"Heathcote, Australia","Heathcote, Sydney, Sutherland Shire Council, 2233, Australia","(-34.0848266, 151.007392, 0.0)",-34.0848266,151.007392,0.0
61,Australia,Henty,Chardonnay,91.0,"Henty, Australia","Henty, Greater Hume Shire Council, 2658, Australia","(-35.5165547, 147.0340204, 0.0)",-35.5165547,147.0340204,0.0
62,Australia,Hilltops,Shiraz,90.0,"Hilltops, Australia","Hilltops Council, Australia","(-34.41561915, 148.56342571324248, 0.0)",-34.41561915,148.56342571324248,0.0
63,Australia,Hunter Valley,Verdelho,90.0,"Hunter Valley, Australia","Hunter, Bendigo, City of Greater Bendigo, Victoria, Australia","(-36.4416698, 144.5065426, 0.0)",-36.4416698,144.5065426,0.0
64,Australia,Kangaroo Island,Shiraz,93.0,"Kangaroo Island, Australia","Kangaroo Island, Kangaroo Island Council, South Australia, Australia","(-35.8182635, 137.15661254022396, 0.0)",-35.8182635,137.15661254022396,0.0
65,Australia,King Valley,Tempranillo,88.0,"King Valley, Australia","King Valley, Wangaratta, Rural City of Wangaratta, Victoria, Australia","(-36.717330000000004, 146.47961170488725, 0.0)",-36.717330000000004,146.47961170488725,0.0
66,Australia,Langhorne Creek,White Blend,90.0,"Langhorne Creek, Australia","Langhorne Creek, Alexandrina Council, South Australia, 5255, Australia","(-35.295938, 139.0364451, 0.0)",-35.295938,139.0364451,0.0
67,Australia,Langhorne Creek-Limestone Coast,White Blend,87.0,"Langhorne Creek-Limestone Coast, Australia",,,,,
68,Australia,Lenswood,Pinot Noir,91.0,"Lenswood, Australia","Lenswood, Adelaide Hills Council, South Australia, 5240, Australia","(-34.920215, 138.8284007, 0.0)",-34.920215,138.8284007,0.0
69,Australia,Limestone Coast,Shiraz-Cabernet Sauvignon,88.5,"Limestone Coast, Australia","Limestone, Mid-Coast Council, Australia","(-32.6683333, 152.1383333, 0.0)",-32.6683333,152.1383333,0.0
70,Australia,Margaret River,Shiraz-Cabernet Sauvignon,91.0,"Margaret River, Australia","Margaret River, 96, Western Australia, 6285, Australia","(-33.9531776, 115.0769369, 0.0)",-33.9531776,115.0769369,0.0
71,Australia,McLaren Vale,Zinfandel,96.0,"McLaren Vale, Australia","McLaren Vale, Adelaide, City of Onkaparinga, South Australia, 5171, Australia","(-35.2172617, 138.5416998, 0.0)",-35.2172617,138.5416998,0.0
72,Australia,McLaren Vale-Adelaide Hills,Viognier,92.0,"McLaren Vale-Adelaide Hills, Australia","McLaren Street, Gumeracha, Adelaide Hills Council, South Australia, 5233, Australia","(-34.8260021, 138.8836784, 0.0)",-34.8260021,138.8836784,0.0
73,Australia,McLaren Vale-Langhorne Creek,Shiraz,87.0,"McLaren Vale-Langhorne Creek, Australia",,,,,
74,Australia,McLaren Vale-Padthaway,Shiraz,91.0,"McLaren Vale-Padthaway, Australia",,,,,
75,Australia,Mornington Peninsula,Pinot Noir,90.5,"Mornington Peninsula, Australia","Mornington, Shire of Mornington Peninsula, Mornington, Victoria, 3931, Australia","(-38.22801, 145.06129114583334, 0.0)",-38.22801,145.06129114583334,0.0
76,Australia,Mount Barker,Shiraz,91.0,"Mount Barker, Australia","Mount Barker, Mount Barker District Council, South Australia, 5251, Australia","(-35.0641302, 138.8586385, 0.0)",-35.0641302,138.8586385,0.0
77,Australia,Mount Barker & Margaret River,Cabernet Sauvignon,90.0,"Mount Barker & Margaret River, Australia",,,,,
78,Australia,Mudgee,Rosé,87.0,"Mudgee, Australia","Mudgee, Mid-Western Regional Council, 2850, Australia","(-32.5980702, 149.5886383, 0.0)",-32.5980702,149.5886383,0.0
79,Australia,Murray-Darling,Red Blend,84.0,"Murray-Darling, Australia","Murray-Darling River Junction, Cadell Street, Wentworth, Wentworth Shire Council, 2648, Australia","(-34.11083, 141.91, 0.0)",-34.11083,141.91,0.0
80,Australia,Nagambie Lakes,Viognier,89.5,"Nagambie Lakes, Australia",,,,,
81,Australia,New South Wales,Sémillon,94.0,"New South Wales, Australia","New South Wales, Australia","(-31.8759835, 147.2869493, 0.0)",-31.8759835,147.2869493,0.0
82,Australia,Orange,Shiraz,87.0,"Orange, Australia","Orange, Orange City Council, New South Wales, 2800, Australia","(-33.2820463, 149.0971567, 0.0)",-33.2820463,149.0971567,0.0
83,Australia,Padthaway,Shiraz-Cabernet Sauvignon,92.0,"Padthaway, Australia","Padthaway, Tatiara District Council, South Australia, 5271, Australia","(-36.5860356, 140.52187338228197, 0.0)",-36.5860356,140.52187338228197,0.0
84,Australia,Pemberton,Viognier,91.0,"Pemberton, Australia","Pemberton, Western Australia, 6260, Australia","(-34.4441275, 116.0346584, 0.0)",-34.4441275,116.0346584,0.0
85,Australia,Piccadilly Valley,Chardonnay,89.0,"Piccadilly Valley, Australia","Piccadilly, Adelaide Hills Council, South Australia, 5151, Australia","(-34.9822479, 138.7262528, 0.0)",-34.9822479,138.7262528,0.0
86,Australia,Pyrenees,Viognier,90.0,"Pyrenees, Australia","Shire of Pyrenees, Victoria, Australia","(-37.32798315, 143.4240560538756, 0.0)",-37.32798315,143.4240560538756,0.0
87,Australia,Riverina,Sémillon,91.0,"Riverina, Australia","Riverina, Footscray, City of Maribyrnong, Victoria, Australia","(-37.80015145, 144.90723822186754, 0.0)",-37.80015145,144.90723822186754,0.0
88,Australia,Riverland,Chardonnay,85.0,"Riverland, Australia","Riverland, 1-9, Princes Walk, St Kilda Road, Melbourne City, City of Melbourne, Victoria, 3000, Australia","(-37.8187059, 144.9686342, 0.0)",-37.8187059,144.9686342,0.0
89,Australia,Rutherglen,Shiraz,88.0,"Rutherglen, Australia","Rutherglen, Shire of Indigo, Victoria, 3685, Australia","(-36.0538594, 146.4601363, 0.0)",-36.0538594,146.4601363,0.0
90,Australia,South Australia,White Blend,92.0,"South Australia, Australia","South Australia, Australia","(-30.5343665, 135.6301212, 0.0)",-30.5343665,135.6301212,0.0
91,Australia,South Eastern Australia,Viognier,89.0,"South Eastern Australia, Australia","S, Coastal 1 Track, Western Australia, Australia","(-33.8790916, 120.8221476, 0.0)",-33.8790916,120.8221476,0.0
92,Australia,Southern Fleurieu,G-S-M,93.0,"Southern Fleurieu, Australia",,,,,
93,Australia,Southern Flinders Ranges,Shiraz-Cabernet Sauvignon,87.0,"Southern Flinders Ranges, Australia",,,,,
94,Australia,Southern Highlands,Cabernet Sauvignon,88.0,"Southern Highlands, Australia","Southern Highlands Christian School, Boardman Road South, Bowral, Wingecarribee Shire Council, New South Wales, 2576, Australia","(-34.502964500000004, 150.43968865894004, 0.0)",-34.502964500000004,150.43968865894004,0.0
95,Australia,Strathbogie Ranges,Shiraz,90.0,"Strathbogie Ranges, Australia","Strathbogie Court, Kilsyth, Montrose, Shire of Yarra Ranges, Victoria, 3765, Australia","(-37.8056262, 145.3319978, 0.0)",-37.8056262,145.3319978,0.0
96,Australia,Swan Hill,Moscato,89.0,"Swan Hill, Australia","Swan Hill, Rural City of Swan Hill, Victoria, 3585, Australia","(-35.3393279, 143.5592026, 0.0)",-35.3393279,143.5592026,0.0
97,Australia,Tasmania,Sparkling Blend,91.5,"Tasmania, Australia","Tasmania, Central Highlands, Tasmania, Australia","(-42.14220555, 146.6723517878467, 0.0)",-42.14220555,146.6723517878467,0.0
98,Australia,Tumbarumba,Chardonnay,88.5,"Tumbarumba, Australia","Tumbarumba, Snowy Valleys Council, 2653, Australia","(-35.7764898, 148.010062, 0.0)",-35.7764898,148.010062,0.0
99,Australia,Victoria,White Blend,91.5,"Victoria, Australia","Victoria, Australia","(-36.5986096, 144.6780052, 0.0)",-36.5986096,144.6780052,0.0
100,Australia,Western Australia,Shiraz-Viognier,90.0,"Western Australia, Australia","Western Australia, Australia","(-25.2303005, 121.0187246, 0.0)",-25.2303005,121.0187246,0.0
101,Australia,Western Plains,Shiraz,87.0,"Western Plains, Australia","Western Plains, Tasmania, Australia","(-42.43301, 145.72115, 0.0)",-42.43301,145.72115,0.0
102,Australia,Wrattonbully,Viognier,93.0,"Wrattonbully, Australia","Wrattonbully, Naracoorte Lucindale Council, South Australia, 5271, Australia","(-37.1677831, 140.9458691, 0.0)",-37.1677831,140.9458691,0.0
103,Australia,Yarra Valley,Viognier,92.5,"Yarra Valley, Australia","Yarra, Goulburn Mulwaree Council, 2580, Australia","(-34.8152, 149.6346, 0.0)",-34.8152,149.6346,0.0
104,Canada,Beamsville Bench,Riesling,91.0,"Beamsville Bench, Canada","Beamsville, Lincoln, Niagara Region, Golden Horseshoe, Ontario, L0R 1B0, Canada","(43.1654577, -79.4751839, 0.0)",43.1654577,-79.4751839,0.0
105,Canada,British Columbia,Sauvignon Blanc,88.0,"British Columbia, Canada","British Columbia, Canada","(55.001251, -125.002441, 0.0)",55.001251,-125.002441,0.0
106,Canada,Lake Erie North Shore,Sauvignon Blanc,87.0,"Lake Erie North Shore, Canada",,,,,
107,Canada,Niagara Escarpment,Vidal Blanc,89.0,"Niagara Escarpment, Canada","Niagara Escarpment, Arkledun Avenue, Corktown, Hamilton, Golden Horseshoe, Ontario, L8N 0A5, Canada","(43.2453321, -79.8611682, 0.0)",43.2453321,-79.8611682,0.0
108,Canada,Niagara Peninsula,Vidal Blanc,91.0,"Niagara Peninsula, Canada","Islamic Society of Niagara Peninsula, 6768, Lyons Creek Road, Niagara Falls, Niagara Region, Golden Horseshoe, Ontario, L2G 7B7, Canada","(43.0326295, -79.1060829, 0.0)",43.0326295,-79.1060829,0.0
109,Canada,Niagara-On-The-Lake,Vidal,92.0,"Niagara-On-The-Lake, Canada","Niagara-on-the-Lake, Niagara Region, Golden Horseshoe, Ontario, Canada","(43.2556116, -79.0723264, 0.0)",43.2556116,-79.0723264,0.0
110,Canada,Okanagan Valley,White Blend,92.0,"Okanagan Valley, Canada","Regional District of North Okanagan, British Columbia, Canada","(50.4164846, -118.7147708, 0.0)",50.4164846,-118.7147708,0.0
111,Canada,Prince Edward County,Chardonnay,86.0,"Prince Edward County, Canada","Prince Edward County, Central Ontario, Ontario, Canada","(44.031827, -77.246933, 0.0)",44.031827,-77.246933,0.0
112,Canada,Short Hills Bench,Riesling,88.0,"Short Hills Bench, Canada",,,,,
113,Canada,Similkameen Valley,Syrah,93.0,"Similkameen Valley, Canada","Regional District of Okanagan-Similkameen, British Columbia, Canada","(49.3920117, -120.1024197, 0.0)",49.3920117,-120.1024197,0.0
114,Canada,St. David's Bench,Viognier,90.0,"St. David's Bench, Canada","St. Davids, Niagara Region, Golden Horseshoe, Ontario, L0S 1P0, Canada","(43.1583943, -79.1022787, 0.0)",43.1583943,-79.1022787,0.0
115,France,Aloxe-Corton,Pinot Noir,90.0,"Aloxe-Corton, France","Aloxe-Corton, Beaune, Côte-d'Or, Bourgogne-Franche-Comté, France métropolitaine, 21420, France","(47.0653471, 4.8596328, 0.0)",47.0653471,4.8596328,0.0
116,France,Alpilles,Rosé,88.0,"Alpilles, France","Alpilles, Rixheim, Mulhouse, Haut-Rhin, Grand Est, France métropolitaine, 68170, France","(47.75305525, 7.385014999999999, 0.0)",47.75305525,7.385014999999999,0.0
117,France,Alsace,White Blend,92.0,"Alsace, France","Alsace, Kintzheim, Sélestat-Erstein, Bas-Rhin, Grand Est, France métropolitaine, 67600, France","(48.24917645, 7.4074699518555, 0.0)",48.24917645,7.4074699518555,0.0
118,France,Anjou,Rosé,88.0,"Anjou, France","Anjou, Vienne, Isère, Auvergne-Rhône-Alpes, France métropolitaine, 38150, France","(45.3462, 4.88149, 0.0)",45.3462,4.88149,0.0
119,France,Anjou Villages,Cabernet Franc-Cabernet Sauvignon,89.0,"Anjou Villages, France","Galva Anjou Touraine, Noyant, Noyant-Villages, Saumur, Maine-et-Loire, Pays de la Loire, France métropolitaine, 49490, France","(47.51815895, 0.12858233212816428, 0.0)",47.51815895,0.12858233212816428,0.0
120,France,Anjou Villages Brissac,Cabernet Sauvignon,91.5,"Anjou Villages Brissac, France",,,,,
121,France,Arbois,White Blend,92.0,"Arbois, France","Arbois, Dole, Jura, Bourgogne-Franche-Comté, France métropolitaine, 39600, France","(46.9032246, 5.7727504, 0.0)",46.9032246,5.7727504,0.0
122,France,Ardèche,Syrah-Grenache,92.0,"Ardèche, France","Ardèche, Auvergne-Rhône-Alpes, France métropolitaine, France","(44.815194000000005, 4.3986524702343965, 0.0)",44.815194000000005,4.3986524702343965,0.0
123,France,Atlantique,Sauvignon Blanc,85.0,"Atlantique, France","Atlantique, Avenue de l'Atlantique, Agen, Lot-et-Garonne, Nouvelle-Aquitaine, France métropolitaine, 47000, France","(44.1832406, 0.6217113, 0.0)",44.1832406,0.6217113,0.0
124,France,Aude Hauterive,White Blend,91.0,"Aude Hauterive, France",,,,,
125,France,Auxey-Duresses,Pinot Noir,89.0,"Auxey-Duresses, France","Auxey-Duresses, Beaune, Côte-d'Or, Bourgogne-Franche-Comté, France métropolitaine, 21190, France","(46.9862244, 4.7467921, 0.0)",46.9862244,4.7467921,0.0
126,France,Bandol,Rosé,92.5,"Bandol, France","Bandol, Toulon, Var, Provence-Alpes-Côte d'Azur, France métropolitaine, 83150, France","(43.1357717, 5.7523647, 0.0)",43.1357717,5.7523647,0.0
127,France,Banyuls,Rhône-style Red Blend,89.0,"Banyuls, France","Banyuls-sur-Mer, Céret, Pyrénées-Orientales, Occitanie, France métropolitaine, 66650, France","(42.4794084, 3.1275893, 0.0)",42.4794084,3.1275893,0.0
128,France,Barsac,Bordeaux-style White Blend,94.5,"Barsac, France","Barsac, Langon, Nouvelle-Aquitaine, France métropolitaine, 33720, France","(44.6043291, -0.323435, 0.0)",44.6043291,-0.323435,0.0
129,France,Beaujolais,Gamay,85.0,"Beaujolais, France","Beaujolais, Rue du Morvan, Brabois, Vandœuvre-lès-Nancy, Nancy, Meurthe-et-Moselle, Grand Est, France métropolitaine, 54500, France","(48.6502078, 6.1585512, 0.0)",48.6502078,6.1585512,0.0
130,France,Beaujolais Blanc,Chardonnay,85.0,"Beaujolais Blanc, France","Rue du Haut Beaujolais, Fontalet, Vers Cray, Monsols, Deux-Grosnes, Villefranche-sur-Saône, Rhône, Circonscription départementale du Rhône, Auvergne-Rhône-Alpes, France métropolitaine, 69860, France","(46.2201004, 4.5206217, 0.0)",46.2201004,4.5206217,0.0
131,France,Beaujolais Rosé,Rosé,86.0,"Beaujolais Rosé, France","Le Beaujolais, Rue du Maréchal Foch, La Gare, Belleville, Belleville-en-Beaujolais, Villefranche-sur-Saône, Rhône, Circonscription départementale du Rhône, Auvergne-Rhône-Alpes, France métropolitaine, 69220, France","(46.1125998, 4.7301906, 0.0)",46.1125998,4.7301906,0.0
132,France,Beaujolais-Leynes,Gamay,86.0,"Beaujolais-Leynes, France",,,,,
133,France,Beaujolais-Villages,Rosé,88.0,"Beaujolais-Villages, France",,,,,
134,France,Beaune,Pinot Noir,92.0,"Beaune, France","Beaune, Côte-d'Or, Bourgogne-Franche-Comté, France métropolitaine, 21200, France","(47.0239064, 4.8380426, 0.0)",47.0239064,4.8380426,0.0
135,France,Bergerac,White Blend,89.0,"Bergerac, France","Bergerac, Dordogne, Nouvelle-Aquitaine, France métropolitaine, 24100, France","(44.8534568, 0.487531, 0.0)",44.8534568,0.487531,0.0
136,France,Bergerac Rosé,Rosé,84.5,"Bergerac Rosé, France","Le Bergerac, Avenue François Mitterrand, La Gavotte, Les Pennes-Mirabeau, Aix-en-Provence, Bouches-du-Rhône, Provence-Alpes-Côte d'Azur, France métropolitaine, 13170, France","(43.3798001, 5.3510569, 0.0)",43.3798001,5.3510569,0.0
137,France,Bergerac Sec,Semillon-Sauvignon Blanc,90.0,"Bergerac Sec, France","Bergerac, Avenue du Régiment d'Infanterie, La Madeleine, Bergerac, Dordogne, Nouvelle-Aquitaine, France métropolitaine, 24100, France","(44.857158, 0.48908932660446847, 0.0)",44.857158,0.48908932660446847,0.0
138,France,Bienvenues Bâtard-Montrachet,Chardonnay,96.5,"Bienvenues Bâtard-Montrachet, France","Bienvenues Batard Montrachet, Puligny-Montrachet, Beaune, Côte-d'Or, Bourgogne-Franche-Comté, France métropolitaine, 21190, France","(46.9457247, 4.742291, 0.0)",46.9457247,4.742291,0.0
139,France,Blanquette de Limoux,Sparkling Blend,86.0,"Blanquette de Limoux, France","Route de la Blanquette, Leouc, La Serpent, Limoux, Aude, Occitanie, France métropolitaine, 11190, France","(42.966765, 2.1817641, 0.0)",42.966765,2.1817641,0.0
140,France,Blaye Côtes de Bordeaux,Sauvignon Blanc,92.0,"Blaye Côtes de Bordeaux, France",,,,,
141,France,Bonnes-Mares,Pinot Noir,94.0,"Bonnes-Mares, France","Carrefour des Bonnes Mares, Sonchamp, Rambouillet, Yvelines, Île-de-France, France métropolitaine, 78120, France","(48.6264989, 1.8579936, 0.0)",48.6264989,1.8579936,0.0
142,France,Bonnezeaux,Chenin Blanc,92.5,"Bonnezeaux, France","Bonnezeaux, Rue Bonnezeaux, Parc d'Ativités de l’Écuyère, Cholet, Maine-et-Loire, Pays de la Loire, France métropolitaine, 49300, France","(47.0785386, -0.8368063, 0.0)",47.0785386,-0.8368063,0.0
143,France,Bordeaux,Merlot-Cabernet Sauvignon,88.0,"Bordeaux, France","Bordeaux, Nouvelle-Aquitaine, France métropolitaine, France","(44.841225, -0.5800364, 0.0)",44.841225,-0.5800364,0.0
144,France,Bordeaux Blanc,Sémillon,90.0,"Bordeaux Blanc, France","Avenue de Bordeaux, Carbon-Blanc, Bordeaux, Nouvelle-Aquitaine, France métropolitaine, 33560, France","(44.8898549, -0.5038666, 0.0)",44.8898549,-0.5038666,0.0
145,France,Bordeaux Clairet,Rosé,85.0,"Bordeaux Clairet, France",,,,,
146,France,Bordeaux Côtes de Francs ,Bordeaux-style Red Blend,89.0,"Bordeaux Côtes de Francs , France",,,,,
147,France,Bordeaux Rosé,Rosé,86.0,"Bordeaux Rosé, France","Bordeaux, Nouvelle-Aquitaine, France métropolitaine, France","(44.841225, -0.5800364, 0.0)",44.841225,-0.5800364,0.0
148,France,Bordeaux Supérieur,Petite Verdot,90.0,"Bordeaux Supérieur, France","Pont Supérieur, Avenue de Dunkerque, Lomme, Lambersart, Lille, Nord, Hauts-de-France, France métropolitaine, 59130, France","(50.6443814, 3.0138888, 0.0)",50.6443814,3.0138888,0.0
149,France,Bourgogne,Rosé,86.5,"Bourgogne, France","Bourgogne, Collonchèvres, Saulieu, Montbard, Côte-d'Or, Bourgogne-Franche-Comté, France métropolitaine, 21210, France","(47.27808725, 4.222486304306048, 0.0)",47.27808725,4.222486304306048,0.0
150,France,Bourgogne Aligoté,Aligoté,86.0,"Bourgogne Aligoté, France",,,,,
151,France,Bourgogne Côtes d’Auxerre,Chardonnay,86.0,"Bourgogne Côtes d’Auxerre, France",,,,,
152,France,Bourgogne Epineuil,Pinot Noir,88.5,"Bourgogne Epineuil, France","Épineuil, Avallon, Yonne, Bourgogne-Franche-Comté, France métropolitaine, 89700, France","(47.8742306, 3.9810488, 0.0)",47.8742306,3.9810488,0.0
153,France,Bourgogne Gamay,Gamay,85.0,"Bourgogne Gamay, France","Gamay, Saint-Sernin-du-Bois, Autun, Saône-et-Loire, Bourgogne-Franche-Comté, France métropolitaine, 71200, France","(46.8280995, 4.4353881, 0.0)",46.8280995,4.4353881,0.0
154,France,Bourgogne Hautes Côtes de Beaune,Pinot Noir,87.0,"Bourgogne Hautes Côtes de Beaune, France",,,,,
155,France,Bourgogne Hautes Côtes de Nuits,Pinot Noir,87.0,"Bourgogne Hautes Côtes de Nuits, France",,,,,
156,France,Bourgogne Vézelay,Chardonnay,86.0,"Bourgogne Vézelay, France","Héritage Bourgogne, Rue Saint-Étienne, Place du Champ de Foire, Vézelay, Avallon, Yonne, Bourgogne-Franche-Comté, France métropolitaine, 89450, France","(47.4645305, 3.7443434, 0.0)",47.4645305,3.7443434,0.0
157,France,Bourgueil,Rosé,88.5,"Bourgueil, France","Bourgueil, Chinon, Indre-et-Loire, Centre-Val de Loire, France métropolitaine, 37140, France","(47.2827691, 0.1788873, 0.0)",47.2827691,0.1788873,0.0
158,France,Brouilly,Gamay Noir,88.0,"Brouilly, France","Brouilly, Odenas, Villefranche-sur-Saône, Rhône, Circonscription départementale du Rhône, Auvergne-Rhône-Alpes, France métropolitaine, 69460, France","(46.1039914, 4.646337, 0.0)",46.1039914,4.646337,0.0
159,France,Brulhois,Red Blend,91.0,"Brulhois, France","Garonne-Lomagne-Brulhois, Asques, Castelsarrasin, Tarn-et-Garonne, Occitanie, France métropolitaine, 82120, France","(44.014808900000006, 0.9527693215746614, 0.0)",44.014808900000006,0.9527693215746614,0.0
160,France,Buzet,Red Blend,89.0,"Buzet, France","Buzet, Valence-sur-Baïse, Condom, Gers, Occitanie, France métropolitaine, 32310, France","(43.8621376, 0.3094196, 0.0)",43.8621376,0.3094196,0.0
161,France,Bâtard-Montrachet,Chardonnay,95.0,"Bâtard-Montrachet, France","Batard Montrachet, Puligny-Montrachet, Beaune, Côte-d'Or, Bourgogne-Franche-Comté, France métropolitaine, 21190, France","(46.9451362, 4.7404005, 0.0)",46.9451362,4.7404005,0.0
162,France,Béarn,Rosé,84.5,"Béarn, France","Béarn, Les Ulis, Palaiseau, Essonne, Île-de-France, France métropolitaine, 91940, France","(48.67681335, 2.1654248806481657, 0.0)",48.67681335,2.1654248806481657,0.0
163,France,Cabardes,Red Blend,89.5,"Cabardes, France","Ventenac-Cabardès, Carcassonne, Aude, Occitanie, France métropolitaine, 11610, France","(43.265544, 2.28401, 0.0)",43.265544,2.28401,0.0
164,France,Cabernet d'Anjou,Rosé,83.0,"Cabernet d'Anjou, France",,,,,
165,France,Cabernet de Saumur,Rosé,85.0,"Cabernet de Saumur, France","Clos du Cabernet, Le Moulin à Cuivre, Distré, Saumur, Maine-et-Loire, Pays de la Loire, France métropolitaine, 49400, France","(47.238395, -0.1194553, 0.0)",47.238395,-0.1194553,0.0
166,France,Cadillac,Bordeaux-style White Blend,88.0,"Cadillac, France","Cadillac, Langon, Nouvelle-Aquitaine, France métropolitaine, 33410, France","(44.6360817, -0.3173533, 0.0)",44.6360817,-0.3173533,0.0
167,France,Cadillac Côtes de Bordeaux,Merlot,90.0,"Cadillac Côtes de Bordeaux, France",,,,,
168,France,Cahors,Red Blend,92.0,"Cahors, France","Cahors, Lot, Occitanie, France métropolitaine, 46000, France","(44.4495, 1.4364999, 0.0)",44.4495,1.4364999,0.0
169,France,Canon-Fronsac,Bordeaux-style Red Blend,88.0,"Canon-Fronsac, France",,,,,
170,France,Castillon Côtes de Bordeaux,Merlot-Cabernet Franc,88.5,"Castillon Côtes de Bordeaux, France",,,,,
171,France,Chablis,Chardonnay,91.0,"Chablis, France","Chablis, Auxerre, Yonne, Bourgogne-Franche-Comté, France métropolitaine, 89800, France","(47.8152073, 3.8001657, 0.0)",47.8152073,3.8001657,0.0
172,France,Chambertin,Pinot Noir,95.0,"Chambertin, France","Chambertin, Rue d'Ahuy, Hauteville-lès-Dijon, Dijon, Côte-d'Or, Bourgogne-Franche-Comté, France métropolitaine, 21121, France","(47.3671774, 4.9989912, 0.0)",47.3671774,4.9989912,0.0
173,France,Chambertin Clos de Bèze,Pinot Noir,95.0,"Chambertin Clos de Bèze, France","Climat de Bourgogne - Grand Cru - Chambertin Clos de Bèze, Plantigone, Gevrey-Chambertin, Beaune, Côte-d'Or, Bourgogne-Franche-Comté, France métropolitaine, 21220, France","(47.21656625, 4.966075597192107, 0.0)",47.21656625,4.966075597192107,0.0
174,France,Chambolle-Musigny,Pinot Noir,90.5,"Chambolle-Musigny, France","Chambolle-Musigny, Beaune, Côte-d'Or, Bourgogne-Franche-Comté, France métropolitaine, 21220, France","(47.1864158, 4.9533347, 0.0)",47.1864158,4.9533347,0.0
175,France,Champagne,Pinot Noir,93.0,"Champagne, France","Champagne, Rochefort, Charente-Maritime, Nouvelle-Aquitaine, France métropolitaine, 17620, France","(45.831944, -0.906667, 0.0)",45.831944,-0.906667,0.0
176,France,Chapelle-Chambertin,Pinot Noir,95.0,"Chapelle-Chambertin, France","Climat de Bourgogne - Premier Cru - Petite Chapelle, Plantigone, Gevrey-Chambertin, Beaune, Côte-d'Or, Bourgogne-Franche-Comté, France métropolitaine, 21220, France","(47.21640375, 4.970988371670214, 0.0)",47.21640375,4.970988371670214,0.0
177,France,Charentais,Sauvignon Blanc,85.0,"Charentais, France","Charentais, Truyes, Tours, Indre-et-Loire, Centre-Val de Loire, France métropolitaine, 37320, France","(47.2725916, 0.8223418, 0.0)",47.2725916,0.8223418,0.0
178,France,Charmes-Chambertin,Pinot Noir,94.5,"Charmes-Chambertin, France","Climat de Bourgogne - Grand Cru - Charmes-Chambertin Les Mazoyères, Plantigone, Gevrey-Chambertin, Beaune, Côte-d'Or, Bourgogne-Franche-Comté, France métropolitaine, 21220, France","(47.2069405, 4.967493301688087, 0.0)",47.2069405,4.967493301688087,0.0
179,France,Chassagne-Montrachet,Pinot Noir,91.0,"Chassagne-Montrachet, France","Chassagne-Montrachet, Beaune, Côte-d'Or, Bourgogne-Franche-Comté, France métropolitaine, 21190, France","(46.93636, 4.72736, 0.0)",46.93636,4.72736,0.0
180,France,Chevalier-Montrachet,Chardonnay,95.0,"Chevalier-Montrachet, France","Chevalier Montrachet, Puligny-Montrachet, Beaune, Côte-d'Or, Bourgogne-Franche-Comté, France métropolitaine, 21190, France","(46.9466831, 4.7373286, 0.0)",46.9466831,4.7373286,0.0
181,France,Cheverny,Sauvignon Blanc-Chardonnay,88.5,"Cheverny, France","Cheverny, Blois, Loir-et-Cher, Centre-Val de Loire, France métropolitaine, 41700, France","(47.4996989, 1.4611064, 0.0)",47.4996989,1.4611064,0.0
182,France,Chignin,Mondeuse,87.0,"Chignin, France","Chignin, Chambéry, Savoie, Auvergne-Rhône-Alpes, France métropolitaine, 73800, France","(45.523749, 6.0116094, 0.0)",45.523749,6.0116094,0.0
183,France,Chignin-Bergeron,Roussanne,90.0,"Chignin-Bergeron, France",,,,,
184,France,Chinon,Rosé,89.0,"Chinon, France","Chinon, Indre-et-Loire, Centre-Val de Loire, France métropolitaine, 37500, France","(47.1667182, 0.2402095, 0.0)",47.1667182,0.2402095,0.0
185,France,Chiroubles,Gamay,88.0,"Chiroubles, France","Chiroubles, Villefranche-sur-Saône, Rhône, Circonscription départementale du Rhône, Auvergne-Rhône-Alpes, France métropolitaine, 69115, France","(46.1811005, 4.6652111, 0.0)",46.1811005,4.6652111,0.0
186,France,Chorey-lès-Beaune,Pinot Noir,87.0,"Chorey-lès-Beaune, France","Chorey-les-Beaune, Beaune, Côte-d'Or, Bourgogne-Franche-Comté, France métropolitaine, 21200, France","(47.0478752, 4.8666174, 0.0)",47.0478752,4.8666174,0.0
187,France,Château-Chalon,Savagnin,94.0,"Château-Chalon, France","Château-Chalon, Lons-le-Saunier, Jura, Bourgogne-Franche-Comté, France métropolitaine, 39210, France","(46.7547194, 5.6269716, 0.0)",46.7547194,5.6269716,0.0
188,France,Châteaumeillant,Rosé,86.0,"Châteaumeillant, France","Châteaumeillant, Saint-Amand-Montrond, Cher, Centre-Val de Loire, France métropolitaine, 18370, France","(46.5608687, 2.1962014, 0.0)",46.5608687,2.1962014,0.0
189,France,Châteauneuf-du-Pape,Roussanne,92.0,"Châteauneuf-du-Pape, France","Châteauneuf-du-Pape, Carpentras, Vaucluse, Provence-Alpes-Côte d'Azur, France métropolitaine, 84230, France","(44.0553336, 4.8312888, 0.0)",44.0553336,4.8312888,0.0
190,France,Chénas,Gamay,89.0,"Chénas, France","Chénas, Villefranche-sur-Saône, Rhône, Circonscription départementale du Rhône, Auvergne-Rhône-Alpes, France métropolitaine, 69840, France","(46.2119329, 4.7190138, 0.0)",46.2119329,4.7190138,0.0
191,France,Clairette de Bellegarde,Clairette,88.0,"Clairette de Bellegarde, France",,,,,
192,France,Clairette de Die,Muscat,87.0,"Clairette de Die, France","La Clairette, Rouen, Seine-Maritime, Normandie, France métropolitaine, 7650, France","(49.4643175, 1.0421717, 0.0)",49.4643175,1.0421717,0.0
193,France,Clos Saint-Denis,Pinot Noir,95.0,"Clos Saint-Denis, France","Clos Saint-Denis, Flagey-Echézeaux, Beaune, Côte-d'Or, Bourgogne-Franche-Comté, France métropolitaine, 21640, France","(47.1671118, 4.9531946, 0.0)",47.1671118,4.9531946,0.0
194,France,Clos de Lambrays,Pinot Noir,96.0,"Clos de Lambrays, France","Climat de Bourgogne - Grand Cru - Clos des Lambrays, Morey-Saint-Denis, Beaune, Côte-d'Or, Bourgogne-Franche-Comté, France métropolitaine, 21220, France","(47.19806455, 4.95900207990256, 0.0)",47.19806455,4.95900207990256,0.0
195,France,Clos de Tart,Pinot Noir,98.0,"Clos de Tart, France","Climat de Bourgogne - Grand Cru - Clos de Tart, Morey-Saint-Denis, Beaune, Côte-d'Or, Bourgogne-Franche-Comté, France métropolitaine, 21220, France","(47.1956198, 4.959588539293363, 0.0)",47.1956198,4.959588539293363,0.0
196,France,Clos de Vougeot,Pinot Noir,93.0,"Clos de Vougeot, France","Clos de Vougeot, Vougeot, Beaune, Côte-d'Or, Bourgogne-Franche-Comté, France métropolitaine, 21640, France","(47.1752753, 4.9554317, 0.0)",47.1752753,4.9554317,0.0
197,France,Clos de la Roche,Pinot Noir,95.0,"Clos de la Roche, France","Le Clos de la Roche, Dracy-le-Fort, Chalon-sur-Saône, Saône-et-Loire, Bourgogne-Franche-Comté, France métropolitaine, 71640, France","(46.7966369, 4.7494197, 0.0)",46.7966369,4.7494197,0.0
198,France,Collines Rhôdaniennes,Viognier,88.0,"Collines Rhôdaniennes, France",,,,,
199,France,Collioure,Rosé,88.0,"Collioure, France","Collioure, Céret, Pyrénées-Orientales, Occitanie, France métropolitaine, 66190, France","(42.52505, 3.0831554, 0.0)",42.52505,3.0831554,0.0
200,France,Condrieu,Viognier,92.0,"Condrieu, France","Condrieu, Lyon, Rhône, Circonscription départementale du Rhône, Auvergne-Rhône-Alpes, France métropolitaine, 69420, France","(45.4624294, 4.7676199, 0.0)",45.4624294,4.7676199,0.0
201,France,Corbières,Rosé,88.0,"Corbières, France","Corbières, Limoux, Aude, Occitanie, France métropolitaine, 11230, France","(43.0547547, 1.9970557, 0.0)",43.0547547,1.9970557,0.0
202,France,Corbières-Boutenac,Rhône-style Red Blend,92.0,"Corbières-Boutenac, France","Avenue des Corbières, Gasparets, Boutenac, Narbonne, Aude, Occitanie, France métropolitaine, 11200, France","(43.1486332, 2.7942614, 0.0)",43.1486332,2.7942614,0.0
203,France,Cornas,Syrah,93.0,"Cornas, France","Cornas, Tournon-sur-Rhône, Ardèche, Auvergne-Rhône-Alpes, France métropolitaine, 07130, France","(44.963521, 4.847545, 0.0)",44.963521,4.847545,0.0
204,France,Corse,White Blend,90.0,"Corse, France","Corse, Vivario, Corte, Haute-Corse, Corse, France métropolitaine, 20219, France","(42.188089649999995, 9.068413771427695, 0.0)",42.188089649999995,9.068413771427695,0.0
205,France,Corse Porto Vecchio,Vermentino,88.0,"Corse Porto Vecchio, France","Rue des Révolutions de Corse, Quartier Vignola, Bragato, Porto-Vecchio, Sartène, Corse-du-Sud, Corse, France métropolitaine, 20137, France","(41.5888018, 9.2840296, 0.0)",41.5888018,9.2840296,0.0
206,France,Corton,Pinot Noir,94.0,"Corton, France","Le Corton, Levernois, Beaune, Côte-d'Or, Bourgogne-Franche-Comté, France métropolitaine, 21200, France","(46.9898792, 4.8750771, 0.0)",46.9898792,4.8750771,0.0
207,France,Corton Grèves,Pinot Noir,94.0,"Corton Grèves, France","Rue d'Aloxe-Corton, Chorey-les-Beaune, Beaune, Côte-d'Or, Bourgogne-Franche-Comté, France métropolitaine, 21200, France","(47.0519058, 4.8621713, 0.0)",47.0519058,4.8621713,0.0
208,France,Corton Les Renardes,Pinot Noir,91.0,"Corton Les Renardes, France",,,,,
209,France,Corton Perrières,Pinot Noir,94.0,"Corton Perrières, France",,,,,
210,France,Corton Vergennes,Pinot Noir,94.5,"Corton Vergennes, France",,,,,
211,France,Corton-Bressandes,Pinot Noir,94.0,"Corton-Bressandes, France","Rouge - Grand Cru - Les Bressandes, Aloxe-Corton, Beaune, Côte-d'Or, Bourgogne-Franche-Comté, France métropolitaine, 21420, France","(47.07018645, 4.864018889067202, 0.0)",47.07018645,4.864018889067202,0.0
212,France,Corton-Charlemagne,Chardonnay,94.0,"Corton-Charlemagne, France","Corton Charlemagne, Aloxe-Corton, Beaune, Côte-d'Or, Bourgogne-Franche-Comté, France métropolitaine, 21420, France","(47.07374645, 4.852580675505619, 0.0)",47.07374645,4.852580675505619,0.0
213,France,Corton-Pougets,Pinot Noir,96.5,"Corton-Pougets, France","Blanc - Grand Cru - Les Pougets, Aloxe-Corton, Beaune, Côte-d'Or, Bourgogne-Franche-Comté, France métropolitaine, 21420, France","(47.07215095, 4.855941792376044, 0.0)",47.07215095,4.855941792376044,0.0
214,France,Corton-Rognet,Pinot Noir,95.0,"Corton-Rognet, France","Rouge - Grand Cru - Le Rognet et Corton, Neuvelle, Ladoix-Serrigny, Beaune, Côte-d'Or, Bourgogne-Franche-Comté, France métropolitaine, 21550, France","(47.078588249999996, 4.8726187480689624, 0.0)",47.078588249999996,4.8726187480689624,0.0
215,France,Costières de Nîmes,White Blend,90.0,"Costières de Nîmes, France","Costières, Nîmes, Gard, Occitanie, France métropolitaine, 30035, France","(43.8170759, 4.360587, 0.0)",43.8170759,4.360587,0.0
216,France,Coteaux Bourguignons,White Blend,87.0,"Coteaux Bourguignons, France",,,,,
217,France,Coteaux Varois,Rosé,92.0,"Coteaux Varois, France",,,,,
218,France,Coteaux Varois en Provence,Rosé,92.0,"Coteaux Varois en Provence, France",,,,,
219,France,Coteaux d'Aix-en-Provence,White Blend,90.0,"Coteaux d'Aix-en-Provence, France",,,,,
220,France,Coteaux d'Ancenis,Rosé,85.0,"Coteaux d'Ancenis, France","Communauté de communes du Pays d'Ancenis, Sainte-Anne, Pouillé-les-Côteaux, Châteaubriant-Ancenis, Loire-Atlantique, Pays de la Loire, France métropolitaine, 44522, France","(47.461800600000004, -1.1808884613782071, 0.0)",47.461800600000004,-1.1808884613782071,0.0
221,France,Coteaux de Verdon,Bordeaux-style Red Blend,90.0,"Coteaux de Verdon, France",,,,,
222,France,Coteaux du Giennois,Sauvignon Blanc,88.0,"Coteaux du Giennois, France","Rue des Coteaux du Giennois, Les Maisons Neuves de Gien, La Maison Brûlée, Gien, Montargis, Loiret, Centre-Val de Loire, France métropolitaine, 45500, France","(47.6831795, 2.6534443, 0.0)",47.6831795,2.6534443,0.0
223,France,Coteaux du Languedoc,White Blend,90.0,"Coteaux du Languedoc, France","Rue des Coteaux du Languedoc, Vinassan, Narbonne, Aude, Occitanie, France métropolitaine, 11110, France","(43.2063672, 3.0768649, 0.0)",43.2063672,3.0768649,0.0
224,France,Coteaux du Languedoc Pic Saint Loup,Rosé,90.0,"Coteaux du Languedoc Pic Saint Loup, France",,,,,
225,France,Coteaux du Layon,Chenin Blanc,91.5,"Coteaux du Layon, France","Rue des Coteaux, Le Bois Salamotte, Saint-Aubin-de-Luigné, Val-du-Layon, Angers, Maine-et-Loire, Pays de la Loire, France métropolitaine, 49190, France","(47.3292126, -0.6705866, 0.0)",47.3292126,-0.6705866,0.0
226,France,Coteaux du Layon Beaulieu,Chenin Blanc,91.5,"Coteaux du Layon Beaulieu, France","Pharmacie des Coteaux, 35, Rue du Fief Signore, La Châtaigneraie, Beaulieu-sur-Layon, Angers, Maine-et-Loire, Pays de la Loire, France métropolitaine, 49750, France","(47.3151609, -0.6004098, 0.0)",47.3151609,-0.6004098,0.0
227,France,Coteaux du Layon Chaume,Chenin Blanc,92.0,"Coteaux du Layon Chaume, France",,,,,
228,France,Coteaux du Lyonnais,Gamay,85.0,"Coteaux du Lyonnais, France","Route des Côteaux du Lyonnais, Le Bas Marjon, Soucieu-en-Jarrest, Lyon, Rhône, Circonscription départementale du Rhône, Auvergne-Rhône-Alpes, France métropolitaine, 69510, France","(45.6782926, 4.6890095, 0.0)",45.6782926,4.6890095,0.0
229,France,Coteaux du Vendômois,Rosé,89.0,"Coteaux du Vendômois, France",,,,,
230,France,Cour-Cheverny,Romorantin,91.0,"Cour-Cheverny, France","Cour-Cheverny, Blois, Loir-et-Cher, Centre-Val de Loire, France métropolitaine, 41700, France","(47.512759, 1.4588243, 0.0)",47.512759,1.4588243,0.0
231,France,Criots-Bâtard-Montrachet,Chardonnay,95.0,"Criots-Bâtard-Montrachet, France",,,,,
232,France,Crozes-Hermitage,Syrah,91.0,"Crozes-Hermitage, France","Crozes-Hermitage, Valence, Drôme, Auvergne-Rhône-Alpes, France métropolitaine, 26600, France","(45.0907, 4.84592, 0.0)",45.0907,4.84592,0.0
233,France,Crémant d'Alsace,Sparkling Blend,93.0,"Crémant d'Alsace, France",,,,,
234,France,Crémant de Bordeaux,Sparkling Blend,84.0,"Crémant de Bordeaux, France",,,,,
235,France,Crémant de Bourgogne,Sparkling Blend,91.0,"Crémant de Bourgogne, France",,,,,
236,France,Crémant de Jura,Sparkling Blend,90.0,"Crémant de Jura, France",,,,,
237,France,Crémant de Limoux,Sparkling Blend,89.0,"Crémant de Limoux, France",,,,,
238,France,Crémant de Loire,Sparkling Blend,91.0,"Crémant de Loire, France",,,,,
239,France,Cérons,Bordeaux-style White Blend,87.5,"Cérons, France","Cérons, Langon, Nouvelle-Aquitaine, France métropolitaine, 33720, France","(44.6316828, -0.3349069, 0.0)",44.6316828,-0.3349069,0.0
240,France,Cévennes,Rosé,85.0,"Cévennes, France","Cévennes, Les Ulis, Palaiseau, Essonne, Île-de-France, France métropolitaine, 91940, France","(48.68049515, 2.1722051594786684, 0.0)",48.68049515,2.1722051594786684,0.0
241,France,Côte Chalonnaise,Pinot Noir,86.0,"Côte Chalonnaise, France","Communauté de communes Sud Côte Chalonnaise, Chalon-sur-Saône, Saône-et-Loire, Bourgogne-Franche-Comté, France métropolitaine, France","(46.694577100000004, 4.685730590942857, 0.0)",46.694577100000004,4.685730590942857,0.0
242,France,Côte Roannaise,Rosé,89.0,"Côte Roannaise, France","Randonnée equestre de la côte roannaise ""La Barre"", Croix Lucas, Saint-Haon-le-Vieux, Roanne, Loire, Auvergne-Rhône-Alpes, France métropolitaine, 42370, France","(46.073277649999994, 3.9159219373281413, 0.0)",46.073277649999994,3.9159219373281413,0.0
243,France,Côte Rôtie,Syrah-Viognier,93.0,"Côte Rôtie, France","Côte Rôtie, Le Tourne, Bordeaux, Nouvelle-Aquitaine, France métropolitaine, 33550, France","(44.7267925, -0.3900425, 0.0)",44.7267925,-0.3900425,0.0
244,France,Côte de Beaune,Pinot Noir,91.0,"Côte de Beaune, France","Communauté d'agglomération Beaune Côte et Sud, Pommard, Beaune, Côte-d'Or, Bourgogne-Franche-Comté, France métropolitaine, 21630, France","(47.01780479999999, 4.789958022613653, 0.0)",47.01780479999999,4.789958022613653,0.0
245,France,Côte de Beaune-Villages,Pinot Noir,89.0,"Côte de Beaune-Villages, France",,,,,
246,France,Côte de Brouilly,Gamay,88.0,"Côte de Brouilly, France","Le Côte de Brouilly, 27, Rue du Beaujolais, Les Clous, Odenas, Villefranche-sur-Saône, Rhône, Circonscription départementale du Rhône, Auvergne-Rhône-Alpes, France métropolitaine, 69460, France","(46.0893824, 4.6470174, 0.0)",46.0893824,4.6470174,0.0
247,France,Côte de Nuits-Villages,Pinot Noir,87.0,"Côte de Nuits-Villages, France",,,,,
248,France,Côtes Catalanes,Rosé,87.0,"Côtes Catalanes, France",,,,,
249,France,Côtes de Bergerac,Merlot,94.0,"Côtes de Bergerac, France","Rue des Côtes de Pécharmant, Château les Farcies du Pech, Bergerac, Dordogne, Nouvelle-Aquitaine, France métropolitaine, 24100, France","(44.8616952, 0.5021461, 0.0)",44.8616952,0.5021461,0.0
250,France,Côtes de Bordeaux,Malbec,88.0,"Côtes de Bordeaux, France","Côtes de Bordeaux, Capian, Langon, Nouvelle-Aquitaine, France métropolitaine, 33550, France","(44.73110855, -0.31870638513075894, 0.0)",44.73110855,-0.31870638513075894,0.0
251,France,Côtes de Bourg,Sauvignon Blanc,88.5,"Côtes de Bourg, France","Côtes, Chemin du Bief de l'Etang Neuf, Les Côtes, Péronnas, Bourg-en-Bresse, Ain, Auvergne-Rhône-Alpes, France métropolitaine, 01960, France","(46.1909042, 5.2068883, 0.0)",46.1909042,5.2068883,0.0
252,France,Côtes de Castillon,Bordeaux-style Red Blend,84.5,"Côtes de Castillon, France",,,,,
253,France,Côtes de Duras,Bordeaux-style Red Blend,86.5,"Côtes de Duras, France",,,,,
254,France,Côtes de Forez,Gamay,84.0,"Côtes de Forez, France","Les Cotes, Bellegarde-en-Forez, Montbrison, Loire, Auvergne-Rhône-Alpes, France métropolitaine, 42210, France","(45.6487994, 4.3378697, 0.0)",45.6487994,4.3378697,0.0
255,France,Côtes de Gascogne,White Blend,88.0,"Côtes de Gascogne, France",,,,,
256,France,Côtes de Montravel,Bordeaux-style White Blend,86.0,"Côtes de Montravel, France",,,,,
257,France,Côtes de Nuits Villages,Pinot Noir,91.0,"Côtes de Nuits Villages, France",,,,,
258,France,Côtes de Provence,White Blend,90.0,"Côtes de Provence, France","Côtes de Provence, Vaudoix, Roquebrune-sur-Argens, Draguignan, Var, Provence-Alpes-Côte d'Azur, France métropolitaine, 83520, France","(43.436803299999994, 6.656936409671031, 0.0)",43.436803299999994,6.656936409671031,0.0
259,France,Côtes de Provence La Londe,Rosé,91.0,"Côtes de Provence La Londe, France",,,,,
260,France,Côtes de Provence Sainte-Victoire,Rosé,90.0,"Côtes de Provence Sainte-Victoire, France",,,,,
261,France,Côtes de Saint-Mont,Red Blend,84.0,"Côtes de Saint-Mont, France",,,,,
262,France,Côtes de Thau,Rosé,86.0,"Côtes de Thau, France",,,,,
263,France,Côtes de Thongue,Rosé,88.0,"Côtes de Thongue, France",,,,,
264,France,Côtes du Frontonnais,Red Blend,85.0,"Côtes du Frontonnais, France",,,,,
265,France,Côtes du Jura,White Blend,89.0,"Côtes du Jura, France","Ruisseau d'Entre Côtes, Foncine-le-Haut, Lons-le-Saunier, Jura, Bourgogne-Franche-Comté, France métropolitaine, 39460, France","(46.6611013, 6.0300085, 0.0)",46.6611013,6.0300085,0.0
266,France,Côtes du Lot,Viognier,91.0,"Côtes du Lot, France","Côtes, Route du Belvédère, Mussillon, Belvedere, Les Allues, Albertville, Savoie, Auvergne-Rhône-Alpes, France métropolitaine, 73550, France","(45.3956194, 6.5749874, 0.0)",45.3956194,6.5749874,0.0
267,France,Côtes du Luberon,Rhône-style White Blend,87.0,"Côtes du Luberon, France",,,,,
268,France,Côtes du Marmandais,Sauvignon Blanc,89.0,"Côtes du Marmandais, France",,,,,
269,France,Côtes du Rhône,Viognier,92.0,"Côtes du Rhône, France","Côtes, Chemin du Bief de l'Etang Neuf, Les Côtes, Péronnas, Bourg-en-Bresse, Ain, Auvergne-Rhône-Alpes, France métropolitaine, 01960, France","(46.1909042, 5.2068883, 0.0)",46.1909042,5.2068883,0.0
270,France,Côtes du Rhône Villages,Syrah,90.0,"Côtes du Rhône Villages, France","Chemin des Cotes, La Gourelière, Le Pin, Villages du Lac de Paladru, La Tour-du-Pin, Isère, Auvergne-Rhône-Alpes, France métropolitaine, 38730, France","(45.4559451, 5.5192803, 0.0)",45.4559451,5.5192803,0.0
271,France,Côtes du Roussillon,Rosé,87.5,"Côtes du Roussillon, France","Clinique des Côtes du Rhône, 12, Rue Fernand Léger, Les Arnaudes, Roussillon, Vienne, Isère, Auvergne-Rhône-Alpes, France métropolitaine, 38150, France","(45.370927449999996, 4.812889925732133, 0.0)",45.370927449999996,4.812889925732133,0.0
272,France,Côtes du Roussillon Les Aspres,Rhône-style Red Blend,91.0,"Côtes du Roussillon Les Aspres, France",,,,,
273,France,Côtes du Roussillon Villages,Rhône-style Red Blend,89.0,"Côtes du Roussillon Villages, France",,,,,
274,France,Côtes du Roussillon Villages Caramany,Rhône-style Red Blend,90.0,"Côtes du Roussillon Villages Caramany, France",,,,,
275,France,Côtes du Roussillon Villages Tautavel,Rhône-style Red Blend,90.0,"Côtes du Roussillon Villages Tautavel, France",,,,,
276,France,Côtes du Tarn,Sauvignon Blanc,90.0,"Côtes du Tarn, France","Au bon côtés des choses, Avenue du Père Evariste Huc, Labro, Caylus, Montauban, Tarn-et-Garonne, Occitanie, France métropolitaine, 82160, France","(44.2365873, 1.7689625, 0.0)",44.2365873,1.7689625,0.0
277,France,Côtes-du-Ventoux,Rosé,89.0,"Côtes-du-Ventoux, France",,,,,
278,France,Echézeaux,Pinot Noir,94.0,"Echézeaux, France","Flagey-Echézeaux, Beaune, Côte-d'Or, Bourgogne-Franche-Comté, France métropolitaine, 21640, France","(47.1668909, 4.9816856, 0.0)",47.1668909,4.9816856,0.0
279,France,Entre-Deux-Mers,Bordeaux-style White Blend,86.0,"Entre-Deux-Mers, France","Entre-Deux-Mers, Boulevard de l'Entre-Deux-Mers, Cenon, Bordeaux, Nouvelle-Aquitaine, France métropolitaine, 33150, France","(44.8454885, -0.5328314, 0.0)",44.8454885,-0.5328314,0.0
280,France,Faugères,Rosé,90.0,"Faugères, France","Faugères, Béziers, Hérault, Occitanie, France métropolitaine, 34600, France","(43.5647, 3.19044, 0.0)",43.5647,3.19044,0.0
281,France,Fitou,Rhône-style Red Blend,89.5,"Fitou, France","Fitou, Narbonne, Aude, Occitanie, France métropolitaine, 11510, France","(42.8946178, 2.9825507, 0.0)",42.8946178,2.9825507,0.0
282,France,Fixin,Pinot Noir,90.0,"Fixin, France","Fixin, Beaune, Côte-d'Or, Bourgogne-Franche-Comté, France métropolitaine, 21220, France","(47.2455008, 4.9728452, 0.0)",47.2455008,4.9728452,0.0
283,France,Fleurie,Gamay,90.0,"Fleurie, France","Fleurie, Villefranche-sur-Saône, Rhône, Circonscription départementale du Rhône, Auvergne-Rhône-Alpes, France métropolitaine, 69820, France","(46.1920243, 4.6981214, 0.0)",46.1920243,4.6981214,0.0
284,France,France,Viognier,80.0,"France, France",France,"(46.603354, 1.8883335, 0.0)",46.603354,1.8883335,0.0
285,France,Francs Côtes de Bordeaux,Merlot,90.0,"Francs Côtes de Bordeaux, France",,,,,
286,France,Fronsac,Merlot,89.0,"Fronsac, France","Fronsac, Libourne, Nouvelle-Aquitaine, France métropolitaine, 33126, France","(44.9229141, -0.2740925, 0.0)",44.9229141,-0.2740925,0.0
287,France,Fronton,Rosé,88.5,"Fronton, France","Fronton, Toulouse, Haute-Garonne, Occitanie, France métropolitaine, 31620, France","(43.840295, 1.390285, 0.0)",43.840295,1.390285,0.0
288,France,Gaillac,White Blend,91.5,"Gaillac, France","Gaillac, Albi, Tarn, Occitanie, France métropolitaine, 81600, France","(43.9016766, 1.8967943, 0.0)",43.9016766,1.8967943,0.0
289,France,Gaillac Doux,Muscadel,92.0,"Gaillac Doux, France",,,,,
290,France,Gard,Rosé,84.0,"Gard, France","Gard, Occitanie, France métropolitaine, France","(43.95995, 4.297637002377168, 0.0)",43.95995,4.297637002377168,0.0
291,France,Gers,White Blend,91.0,"Gers, France","Gers, Occitanie, France métropolitaine, France","(43.695527600000005, 0.4101019175237992, 0.0)",43.695527600000005,0.4101019175237992,0.0
292,France,Gevrey-Chambertin,Pinot Noir,92.0,"Gevrey-Chambertin, France","Gevrey-Chambertin, Beaune, Côte-d'Or, Bourgogne-Franche-Comté, France métropolitaine, 21220, France","(47.2261857, 4.9705666, 0.0)",47.2261857,4.9705666,0.0
293,France,Gigondas,Rhône-style Red Blend,90.0,"Gigondas, France","Gigondas, Carpentras, Vaucluse, Provence-Alpes-Côte d'Azur, France métropolitaine, 84190, France","(44.1641127, 5.0051053, 0.0)",44.1641127,5.0051053,0.0
294,France,Givry,Pinot Noir,88.0,"Givry, France","Givry, Chalon-sur-Saône, Saône-et-Loire, Bourgogne-Franche-Comté, France métropolitaine, 71640, France","(46.7831191, 4.7432564, 0.0)",46.7831191,4.7432564,0.0
295,France,Grands-Echezeaux,Pinot Noir,94.0,"Grands-Echezeaux, France","Les Grands Echézeaux, Flagey-Echézeaux, Beaune, Côte-d'Or, Bourgogne-Franche-Comté, France métropolitaine, 21640, France","(47.1713647, 4.9538051, 0.0)",47.1713647,4.9538051,0.0
296,France,Graves,White Blend,90.0,"Graves, France","Graves, Périgny, Vichy, Allier, Auvergne-Rhône-Alpes, France métropolitaine, 03120, France","(46.27039, 3.5654762, 0.0)",46.27039,3.5654762,0.0
297,France,Haut-Médoc,Bordeaux-style Red Blend,89.0,"Haut-Médoc, France","Rue du Pays Haut, Médoc, Veymerange, Thionville, Moselle, Grand Est, France métropolitaine, 57100, France","(49.3549052, 6.1575875, 0.0)",49.3549052,6.1575875,0.0
298,France,Hautes Cotes de Beaune,Pinot Noir,89.0,"Hautes Cotes de Beaune, France","Route des Hautes Côtes, Villars-Fontaine, Beaune, Côte-d'Or, Bourgogne-Franche-Comté, France métropolitaine, 21700, France","(47.1499101, 4.8899102, 0.0)",47.1499101,4.8899102,0.0
299,France,Hautes Côtes de Nuits,Pinot Noir,88.0,"Hautes Côtes de Nuits, France",,,,,
300,France,Hermitage,Syrah,95.0,"Hermitage, France","Hermitage, Saint-Alban-de-Roche, La Tour-du-Pin, Isère, Auvergne-Rhône-Alpes, France métropolitaine, 38080, France","(45.5767428, 5.2197156, 0.0)",45.5767428,5.2197156,0.0
301,France,Ile de Beauté,White Blend,89.0,"Ile de Beauté, France","Île de beauté, 30, Rue de la République, La Source, Martigues, Istres, Bouches-du-Rhône, Provence-Alpes-Côte d'Azur, France métropolitaine, 13500, France","(43.4060973, 5.0550115, 0.0)",43.4060973,5.0550115,0.0
302,France,Irancy,Red Blend,87.0,"Irancy, France","Irancy, Auxerre, Yonne, Bourgogne-Franche-Comté, France métropolitaine, 89290, France","(47.7132623, 3.6653566, 0.0)",47.7132623,3.6653566,0.0
303,France,Irrouléguy,White Blend,89.0,"Irrouléguy, France",,,,,
304,France,Juliénas,Gamay,90.0,"Juliénas, France","Juliénas, Villefranche-sur-Saône, Rhône, Circonscription départementale du Rhône, Auvergne-Rhône-Alpes, France métropolitaine, 69840, France","(46.2347371, 4.7114718, 0.0)",46.2347371,4.7114718,0.0
305,France,Jurançon,White Blend,92.0,"Jurançon, France","Jurançon, Pau, Pyrénées-Atlantiques, Nouvelle-Aquitaine, France métropolitaine, 64110, France","(43.2871825, -0.3896425, 0.0)",43.2871825,-0.3896425,0.0
306,France,Jurançon Sec,White Blend,90.5,"Jurançon Sec, France","Jurançon, Pau, Pyrénées-Atlantiques, Nouvelle-Aquitaine, France métropolitaine, 64110, France","(43.2871825, -0.3896425, 0.0)",43.2871825,-0.3896425,0.0
307,France,La Clape,Rosé,89.0,"La Clape, France","La Clape, Mouthoumet, Narbonne, Aude, Occitanie, France métropolitaine, 11330, France","(42.9686517, 2.5484271, 0.0)",42.9686517,2.5484271,0.0
308,France,La Romanée,Pinot Noir,96.0,"La Romanée, France","La Romanée, Montbard, Côte-d'Or, Bourgogne-Franche-Comté, France métropolitaine, 21530, France","(47.4013892, 4.1072943, 0.0)",47.4013892,4.1072943,0.0
309,France,Ladoix,Pinot Noir,89.0,"Ladoix, France","Mairie de Ladoix-Serrigny, Place de la Mairie, Neuvelle, Ladoix-Serrigny, Beaune, Côte-d'Or, Bourgogne-Franche-Comté, France métropolitaine, 21550, France","(47.066212, 4.886749694444445, 0.0)",47.066212,4.886749694444445,0.0
310,France,Lalande de Pomerol,Merlot,89.0,"Lalande de Pomerol, France","Lalande-de-Pomerol, Libourne, Nouvelle-Aquitaine, France métropolitaine, 33500, France","(44.9560756, -0.2104434, 0.0)",44.9560756,-0.2104434,0.0
311,France,Landes,White Blend,86.0,"Landes, France","Landes, Nouvelle-Aquitaine, France métropolitaine, France","(44.00996945, -0.6433872354467377, 0.0)",44.00996945,-0.6433872354467377,0.0
312,France,Languedoc,White Blend,90.0,"Languedoc, France","Languedoc, Place du Languedoc, Plein Centre, Colomiers, Toulouse, Haute-Garonne, Occitanie, France métropolitaine, 31770, France","(43.6108676, 1.3301059, 0.0)",43.6108676,1.3301059,0.0
313,France,Latricières-Chambertin,Pinot Noir,94.0,"Latricières-Chambertin, France","Climat de Bourgogne - Grand Cru - Latricières-Chambertin, Plantigone, Gevrey-Chambertin, Beaune, Côte-d'Or, Bourgogne-Franche-Comté, France métropolitaine, 21220, France","(47.207998950000004, 4.9638896947741795, 0.0)",47.207998950000004,4.9638896947741795,0.0
314,France,Laudun,Rhône-style White Blend,89.0,"Laudun, France","Laudun-l'Ardoise, Nîmes, Gard, Occitanie, France métropolitaine, 30290, France","(44.10482705, 4.655752285759262, 0.0)",44.10482705,4.655752285759262,0.0
315,France,Les Baux de Provence,White Blend,92.0,"Les Baux de Provence, France","Les Baux-de-Provence, Arles, Bouches-du-Rhône, Provence-Alpes-Côte d'Azur, France métropolitaine, 13520, France","(43.7436371, 4.795125, 0.0)",43.7436371,4.795125,0.0
316,France,Limoux,White Blend,90.0,"Limoux, France","Limoux, Aude, Occitanie, France métropolitaine, 11300, France","(43.0538068, 2.2176533, 0.0)",43.0538068,2.2176533,0.0
317,France,Lirac,Rosé,91.0,"Lirac, France","Lirac, Nîmes, Gard, Occitanie, France métropolitaine, 30126, France","(44.0372, 4.69136, 0.0)",44.0372,4.69136,0.0
318,France,Listrac-Médoc,Bordeaux-style Red Blend,88.0,"Listrac-Médoc, France","Listrac-Médoc, Lesparre-Médoc, Nouvelle-Aquitaine, France métropolitaine, 33480, France","(45.0736769, -0.7905774, 0.0)",45.0736769,-0.7905774,0.0
319,France,Lot,Rosé,89.0,"Lot, France","Lot, Occitanie, France métropolitaine, France","(44.624991800000004, 1.6657742169753669, 0.0)",44.624991800000004,1.6657742169753669,0.0
320,France,Luberon,White Blend,88.0,"Luberon, France","Le Lubéron, Revaison, Saint-Priest, Lyon, Métropole de Lyon, Circonscription départementale du Rhône, Auvergne-Rhône-Alpes, France métropolitaine, 69800, France","(45.7040767, 4.918631125773569, 0.0)",45.7040767,4.918631125773569,0.0
321,France,Lussac Saint-Émilion,Merlot,88.0,"Lussac Saint-Émilion, France",,,,,
322,France,Macon-Bussières,Chardonnay,84.0,"Macon-Bussières, France","Route de Mâcon, Les Chenelières, Bussières, Mâcon, Saône-et-Loire, Bourgogne-Franche-Comté, France métropolitaine, 71960, France","(46.3338446, 4.692127, 0.0)",46.3338446,4.692127,0.0
323,France,Madiran,Tannat-Cabernet Franc,93.0,"Madiran, France","Madiran, Tarbes, Hautes-Pyrénées, Occitanie, France métropolitaine, 65700, France","(43.5502022, -0.0580853, 0.0)",43.5502022,-0.0580853,0.0
324,France,Maranges,Pinot Noir,88.0,"Maranges, France","Cheilly-lès-Maranges, Chalon-sur-Saône, Saône-et-Loire, Bourgogne-Franche-Comté, France métropolitaine, 71150, France","(46.8950027, 4.6691039, 0.0)",46.8950027,4.6691039,0.0
325,France,Marcillac,Rosé,89.0,"Marcillac, France","Marcillac, Val-de-Livenne, Blaye, Nouvelle-Aquitaine, France métropolitaine, 33860, France","(45.27374695, -0.49955961805011406, 0.0)",45.27374695,-0.49955961805011406,0.0
326,France,Margaux,Cabernet Sauvignon,91.0,"Margaux, France","Margaux, Margaux-Cantenac, Lesparre-Médoc, Nouvelle-Aquitaine, France métropolitaine, 33460, France","(45.046232, -0.6728850937448874, 0.0)",45.046232,-0.6728850937448874,0.0
327,France,Marsannay,Pinot Noir,89.0,"Marsannay, France","Marsannay, Avenue Gaston Roupnel, Marsannay-la-Côte, Dijon, Côte-d'Or, Bourgogne-Franche-Comté, France métropolitaine, 21160, France","(47.2798188, 5.0064179, 0.0)",47.2798188,5.0064179,0.0
328,France,Maury,Grenache,90.0,"Maury, France","Maury, Prades, Pyrénées-Orientales, Occitanie, France métropolitaine, 66460, France","(42.8102692, 2.5935825, 0.0)",42.8102692,2.5935825,0.0
329,France,Maury Sec,Rhône-style Red Blend,90.0,"Maury Sec, France","Maury, Prades, Pyrénées-Orientales, Occitanie, France métropolitaine, 66460, France","(42.8102692, 2.5935825, 0.0)",42.8102692,2.5935825,0.0
330,France,Mazis-Chambertin,Pinot Noir,95.0,"Mazis-Chambertin, France","Climat de Bourgogne - Grand Cru - Mazis-Chambertin, Plantigone, Gevrey-Chambertin, Beaune, Côte-d'Or, Bourgogne-Franche-Comté, France métropolitaine, 21220, France","(47.2201931, 4.966842121372782, 0.0)",47.2201931,4.966842121372782,0.0
331,France,Mazoyeres-Chambertin,Pinot Noir,95.0,"Mazoyeres-Chambertin, France","Climat de Bourgogne - Grand Cru - Charmes-Chambertin Les Mazoyères, Plantigone, Gevrey-Chambertin, Beaune, Côte-d'Or, Bourgogne-Franche-Comté, France métropolitaine, 21220, France","(47.2069405, 4.967493301688087, 0.0)",47.2069405,4.967493301688087,0.0
332,France,Mediterranée,Rosé,86.5,"Mediterranée, France","Méditerranée, Résidence ""Les Marendes des Palombes II"", Mas des Salins, Le Barcarès, Perpignan, Pyrénées-Orientales, Occitanie, France métropolitaine, 66420, France","(42.791978, 3.0357695, 0.0)",42.791978,3.0357695,0.0
333,France,Menetou-Salon,Sauvignon Blanc,88.0,"Menetou-Salon, France","Menetou-Salon, Bourges, Cher, Centre-Val de Loire, France métropolitaine, 18510, France","(47.2315397, 2.4886282, 0.0)",47.2315397,2.4886282,0.0
334,France,Mercurey,Pinot Noir,89.5,"Mercurey, France","Mercurey, Chalon-sur-Saône, Saône-et-Loire, Bourgogne-Franche-Comté, France métropolitaine, 71640, France","(46.8396584, 4.7189272, 0.0)",46.8396584,4.7189272,0.0
335,France,Meursault,Chardonnay,91.0,"Meursault, France","Meursault, Beaune, Côte-d'Or, Bourgogne-Franche-Comté, France métropolitaine, 21190, France","(46.9783803, 4.7694038, 0.0)",46.9783803,4.7694038,0.0
336,France,Meursault-Blagny,Chardonnay,93.5,"Meursault-Blagny, France","Meursault, Place de la République, Meursault, Beaune, Côte-d'Or, Bourgogne-Franche-Comté, France métropolitaine, 21190, France","(46.9776267, 4.7707164, 0.0)",46.9776267,4.7707164,0.0
337,France,Minervois,White Blend,91.0,"Minervois, France","Le Minervois, Rue de la Promenade, Clos de Centeilles, Siran, Béziers, Hérault, Occitanie, France métropolitaine, 34210, France","(43.3126281, 2.6608686, 0.0)",43.3126281,2.6608686,0.0
338,France,Minervois La Liviniere,Syrah-Grenache,89.5,"Minervois La Liviniere, France","forêt communale de Félines Minervois, D 12, Saint-Benoît, La Livinière, Béziers, Hérault, Occitanie, France métropolitaine, 34210, France","(43.3562448, 2.599735775433233, 0.0)",43.3562448,2.599735775433233,0.0
339,France,Monbazillac,Bordeaux-style White Blend,89.5,"Monbazillac, France","Monbazillac, Bergerac, Dordogne, Nouvelle-Aquitaine, France métropolitaine, 24240, France","(44.795, 0.4925, 0.0)",44.795,0.4925,0.0
340,France,Montagne-Saint-Émilion,Merlot,88.0,"Montagne-Saint-Émilion, France","Route de Montagne, Saint-Émilion, Libourne, Nouvelle-Aquitaine, France métropolitaine, 33330, France","(44.9253754, -0.165846, 0.0)",44.9253754,-0.165846,0.0
341,France,Montagny,Chardonnay,88.0,"Montagny, France","Montagny, Roanne, Loire, Auvergne-Rhône-Alpes, France métropolitaine, 42840, France","(46.032283, 4.2343363, 0.0)",46.032283,4.2343363,0.0
342,France,Monthélie,Pinot Noir,88.0,"Monthélie, France","Monthelie, Beaune, Côte-d'Or, Bourgogne-Franche-Comté, France métropolitaine, 21190, France","(46.9928724, 4.7658083, 0.0)",46.9928724,4.7658083,0.0
343,France,Montrachet,Chardonnay,96.0,"Montrachet, France","Montrachet, Puligny-Montrachet, Beaune, Côte-d'Or, Bourgogne-Franche-Comté, France métropolitaine, 21190, France","(46.9455125, 4.7384962, 0.0)",46.9455125,4.7384962,0.0
344,France,Montravel,Sauvignon Blanc,89.0,"Montravel, France","Montravel, Remire-Montjoly, Cayenne, Guyane, 97354, France","(4.9119511, -52.2591469, 0.0)",4.9119511,-52.2591469,0.0
345,France,Morey-Saint-Denis,Pinot Noir,91.0,"Morey-Saint-Denis, France","Morey-Saint-Denis, Beaune, Côte-d'Or, Bourgogne-Franche-Comté, France métropolitaine, 21220, France","(47.1955052, 4.9623167, 0.0)",47.1955052,4.9623167,0.0
346,France,Morgon,Gamay,90.0,"Morgon, France","Le Morgon, Villefranche-sur-Saône, Rhône, Circonscription départementale du Rhône, Auvergne-Rhône-Alpes, France métropolitaine, 69400, France","(45.9844168, 4.6618268, 0.0)",45.9844168,4.6618268,0.0
347,France,Moulin-à-Vent,Gamay,90.0,"Moulin-à-Vent, France","Moulin à Vent, Route du Moulin à Vent, Le Moulin à Vent, Romanèche-Thorins, Mâcon, Rhône, Circonscription départementale du Rhône, Auvergne-Rhône-Alpes, France métropolitaine, 71570, France","(46.2029456, 4.727418126420455, 0.0)",46.2029456,4.727418126420455,0.0
348,France,Moulis,Bordeaux-style Red Blend,91.0,"Moulis, France","Moulis, Saint-Girons, Ariège, Occitanie, France métropolitaine, 09200, France","(42.9604715, 1.0924298, 0.0)",42.9604715,1.0924298,0.0
349,France,Moulis-en-Médoc,Bordeaux-style Red Blend,90.0,"Moulis-en-Médoc, France","Moulis-en-Médoc, Lesparre-Médoc, Nouvelle-Aquitaine, France métropolitaine, 33480, France","(45.0564852, -0.7736381, 0.0)",45.0564852,-0.7736381,0.0
350,France,Muscadet,Melon,85.0,"Muscadet, France","Le Muscadet, Mouchamps, La Roche-sur-Yon, Vendée, Pays de la Loire, France métropolitaine, 85640, France","(46.7565822, -1.0936347, 0.0)",46.7565822,-1.0936347,0.0
351,France,Muscadet Coteaux de la Loire,Melon,86.0,"Muscadet Coteaux de la Loire, France",,,,,
352,France,Muscadet Côtes de Grandlieu,Melon,87.5,"Muscadet Côtes de Grandlieu, France",,,,,
353,France,Muscadet Sèvre et Maine,Melon,89.0,"Muscadet Sèvre et Maine, France",,,,,
354,France,Muscadet Sèvre et Maine Clisson,Melon,91.0,"Muscadet Sèvre et Maine Clisson, France",,,,,
355,France,Muscat de Beaumes de Venise,Muscat,87.0,"Muscat de Beaumes de Venise, France",,,,,
356,France,Muscat de Rivesaltes,Muscat d'Alexandrie,88.0,"Muscat de Rivesaltes, France",,,,,
357,France,Musigny,Pinot Noir,95.5,"Musigny, France","Musigny, Beaune, Côte-d'Or, Bourgogne-Franche-Comté, France métropolitaine, 21230, France","(47.163835, 4.5172082, 0.0)",47.163835,4.5172082,0.0
358,France,Mâcon,Chardonnay,86.0,"Mâcon, France","Mâcon, Saône-et-Loire, Bourgogne-Franche-Comté, France métropolitaine, 71000, France","(46.3036683, 4.8322266, 0.0)",46.3036683,4.8322266,0.0
359,France,Mâcon Chaintré,Chardonnay,86.0,"Mâcon Chaintré, France","Rue Mâcon-Chaintré, En Gelée, Loché, Mâcon, Saône-et-Loire, Bourgogne-Franche-Comté, France métropolitaine, 71000, France","(46.279561, 4.7786921, 0.0)",46.279561,4.7786921,0.0
360,France,Mâcon La Roche Vineuse,Chardonnay,88.0,"Mâcon La Roche Vineuse, France","Route de Mâcon, Linde, La Roche-Vineuse, Mâcon, Saône-et-Loire, Bourgogne-Franche-Comté, France métropolitaine, 71960, France","(46.3478903, 4.7168192, 0.0)",46.3478903,4.7168192,0.0
361,France,Mâcon Solutré,Chardonnay,87.0,"Mâcon Solutré, France","Solutré, Solutré-Pouilly, Mâcon, Saône-et-Loire, Bourgogne-Franche-Comté, France métropolitaine, 71960, France","(46.2969485, 4.7241794, 0.0)",46.2969485,4.7241794,0.0
362,France,Mâcon-Azé,Chardonnay,87.0,"Mâcon-Azé, France","Azé, Mâcon, Saône-et-Loire, Bourgogne-Franche-Comté, France métropolitaine, 71260, France","(46.431937, 4.7607483, 0.0)",46.431937,4.7607483,0.0
363,France,Mâcon-Chardonnay,Chardonnay,85.0,"Mâcon-Chardonnay, France","Chardonnay, Mâcon, Saône-et-Loire, Bourgogne-Franche-Comté, France métropolitaine, 71700, France","(46.5097977, 4.862258, 0.0)",46.5097977,4.862258,0.0
364,France,Mâcon-Charnay,Chardonnay,88.0,"Mâcon-Charnay, France","Charnay-lès-Mâcon, Mâcon, Saône-et-Loire, Bourgogne-Franche-Comté, France métropolitaine, 71850, France","(46.3098212, 4.784542, 0.0)",46.3098212,4.784542,0.0
365,France,Mâcon-Cruzille,Chardonnay,86.5,"Mâcon-Cruzille, France","Cruzille, Mâcon, Saône-et-Loire, Bourgogne-Franche-Comté, France métropolitaine, 71260, France","(46.506425, 4.7968947, 0.0)",46.506425,4.7968947,0.0
366,France,Mâcon-Davayé,Chardonnay,88.5,"Mâcon-Davayé, France","Route de Mâcon, Moulin Satin, Davayé, Mâcon, Saône-et-Loire, Bourgogne-Franche-Comté, France métropolitaine, 71960, France","(46.2989681, 4.7653692, 0.0)",46.2989681,4.7653692,0.0
367,France,Mâcon-Fuissé,Chardonnay,87.5,"Mâcon-Fuissé, France","Fuissé, Mâcon, Saône-et-Loire, Bourgogne-Franche-Comté, France métropolitaine, 71960, France","(46.2798941, 4.7441091, 0.0)",46.2798941,4.7441091,0.0
368,France,Mâcon-Loché,Chardonnay,87.0,"Mâcon-Loché, France","Mâcon-Loché-TGV, Chemin de la Balme, Loché, Mâcon, Saône-et-Loire, Bourgogne-Franche-Comté, France métropolitaine, 71000, France","(46.2829122, 4.7788492, 0.0)",46.2829122,4.7788492,0.0
369,France,Mâcon-Lugny,Chardonnay,86.0,"Mâcon-Lugny, France","Rue de Mâcon, Saint-Pierre, Lugny, Mâcon, Saône-et-Loire, Bourgogne-Franche-Comté, France métropolitaine, 71260, France","(46.4738658, 4.807747, 0.0)",46.4738658,4.807747,0.0
370,France,Mâcon-Milly Lamartine,Chardonnay,88.0,"Mâcon-Milly Lamartine, France","Route de Mâcon, Milly-Lamartine, Mâcon, Saône-et-Loire, Bourgogne-Franche-Comté, France métropolitaine, 71960, France","(46.3508165, 4.700772, 0.0)",46.3508165,4.700772,0.0
371,France,Mâcon-Pierreclos,Chardonnay,85.0,"Mâcon-Pierreclos, France","Route de Mâcon, Les Chenelières, Bussières, Mâcon, Saône-et-Loire, Bourgogne-Franche-Comté, France métropolitaine, 71960, France","(46.3338446, 4.692127, 0.0)",46.3338446,4.692127,0.0
372,France,Mâcon-Péronne,Chardonnay,85.5,"Mâcon-Péronne, France","Péronne, Mâcon, Saône-et-Loire, Bourgogne-Franche-Comté, France métropolitaine, 71260, France","(46.4385322, 4.8096295, 0.0)",46.4385322,4.8096295,0.0
373,France,Mâcon-Uchizy,Chardonnay,89.0,"Mâcon-Uchizy, France","Mairire de Farges-lès-Mâcon, Grande Rue, Farges-lès-Mâcon, Mâcon, Saône-et-Loire, Bourgogne-Franche-Comté, France métropolitaine, 71700, France","(46.5122378, 4.8982181, 0.0)",46.5122378,4.8982181,0.0
374,France,Mâcon-Vergisson,Chardonnay,87.0,"Mâcon-Vergisson, France","Rue du Château de France, Le Repostère, Vergisson, Mâcon, Saône-et-Loire, Bourgogne-Franche-Comté, France métropolitaine, 71960, France","(46.3091845, 4.7126498, 0.0)",46.3091845,4.7126498,0.0
375,France,Mâcon-Verze,Chardonnay,88.0,"Mâcon-Verze, France","Route de Mâcon, Igé, Mâcon, Saône-et-Loire, Bourgogne-Franche-Comté, France métropolitaine, 71960, France","(46.3869887, 4.7516351, 0.0)",46.3869887,4.7516351,0.0
376,France,Mâcon-Villages,Chardonnay,86.0,"Mâcon-Villages, France","Sennecé-lès-Mâcon, Mâcon, Saône-et-Loire, Bourgogne-Franche-Comté, France métropolitaine, 71870, France","(46.3584804, 4.832463, 0.0)",46.3584804,4.832463,0.0
377,France,Mâcon-Vinzelles,Chardonnay,85.5,"Mâcon-Vinzelles, France","Varennes-lès-Mâcon, Route Nationale 6, La Condemine, Varennes-lès-Mâcon, Mâcon, Saône-et-Loire, Bourgogne-Franche-Comté, France métropolitaine, 71680, France","(46.2732104, 4.7991224, 0.0)",46.2732104,4.7991224,0.0
378,France,Médoc,Cabernet Sauvignon,87.0,"Médoc, France","Le Médoc, Biron, Jonzac, Charente-Maritime, Nouvelle-Aquitaine, France métropolitaine, 17800, France","(45.5613041, -0.489107, 0.0)",45.5613041,-0.489107,0.0
379,France,Nuits-St.-Georges,Pinot Noir,90.5,"Nuits-St.-Georges, France","Nuits-Saint-Georges, Beaune, Côte-d'Or, Bourgogne-Franche-Comté, France métropolitaine, 21700, France","(47.134979, 4.9540989, 0.0)",47.134979,4.9540989,0.0
380,France,Pacherenc du Vic Bilh,White Blend,93.0,"Pacherenc du Vic Bilh, France",,,,,
381,France,Patrimonio,White Blend,89.0,"Patrimonio, France","Patrimonio, Calvi, Haute-Corse, Corse, France métropolitaine, 20253, France","(42.7007387, 9.3645244, 0.0)",42.7007387,9.3645244,0.0
382,France,Pauillac,Bordeaux-style Red Blend,93.0,"Pauillac, France","Pauillac, Lesparre-Médoc, Nouvelle-Aquitaine, France métropolitaine, 33250, France","(45.1995626, -0.7484994, 0.0)",45.1995626,-0.7484994,0.0
383,France,Pays d'Oc,White Blend,88.0,"Pays d'Oc, France","Pays d'Oc, Rue Pierre Paul Riquet, Les Chalets - Saint-Aubin - Saint-Étienne, Toulouse Centre, Toulouse, Haute-Garonne, Occitanie, France métropolitaine, 31000, France","(43.604764, 1.4540399, 0.0)",43.604764,1.4540399,0.0
384,France,Pays de Loire,Chardonnay,85.0,"Pays de Loire, France","Pays de la Loire, France métropolitaine, France","(47.6594864, -0.8186143, 0.0)",47.6594864,-0.8186143,0.0
385,France,Pernand-Vergelesses,Pinot Noir,92.0,"Pernand-Vergelesses, France","Pernand-Vergelesses, Beaune, Côte-d'Or, Bourgogne-Franche-Comté, France métropolitaine, 21420, France","(47.078957, 4.853803, 0.0)",47.078957,4.853803,0.0
386,France,Pessac-Léognan,Sauvignon Blanc,93.0,"Pessac-Léognan, France",,,,,
387,France,Petit Chablis,Chardonnay,85.0,"Petit Chablis, France","Le Petit Lechet, Chablis, Auxerre, Yonne, Bourgogne-Franche-Comté, France métropolitaine, 89800, France","(47.8133804, 3.7692048, 0.0)",47.8133804,3.7692048,0.0
388,France,Picpoul de Pinet,Picpoul,86.0,"Picpoul de Pinet, France","Avenue du Picpoul, Pinet, Béziers, Hérault, Occitanie, France métropolitaine, 34850, France","(43.4069838, 3.509504, 0.0)",43.4069838,3.509504,0.0
389,France,Pomerol,Merlot,91.5,"Pomerol, France","Pomerol, Libourne, Nouvelle-Aquitaine, France métropolitaine, 33500, France","(44.9311234, -0.1999904, 0.0)",44.9311234,-0.1999904,0.0
390,France,Pommard,Pinot Noir,91.0,"Pommard, France","Pommard, Beaune, Côte-d'Or, Bourgogne-Franche-Comté, France métropolitaine, 21630, France","(47.0087919, 4.7962295, 0.0)",47.0087919,4.7962295,0.0
391,France,Pouilly-Fuissé,Chardonnay,89.0,"Pouilly-Fuissé, France",,,,,
392,France,Pouilly-Fumé,White Blend,92.0,"Pouilly-Fumé, France",,,,,
393,France,Pouilly-Loché,Chardonnay,88.0,"Pouilly-Loché, France","Chemin des Pouilly, La Colonge, Loché, Mâcon, Saône-et-Loire, Bourgogne-Franche-Comté, France métropolitaine, 71000, France","(46.2784659, 4.7688545, 0.0)",46.2784659,4.7688545,0.0
394,France,Pouilly-Vinzelles,Chardonnay,87.5,"Pouilly-Vinzelles, France","Rue Pouilly-Vinzelles, Le Colombier, Loché, Mâcon, Saône-et-Loire, Bourgogne-Franche-Comté, France métropolitaine, 71000, France","(46.279805, 4.7816133, 0.0)",46.279805,4.7816133,0.0
395,France,Pouilly-sur-Loire,Chasselas,87.0,"Pouilly-sur-Loire, France","Pouilly-sur-Loire, Cosne-Cours-sur-Loire, Nièvre, Bourgogne-Franche-Comté, France métropolitaine, 58150, France","(47.281542, 2.9583419, 0.0)",47.281542,2.9583419,0.0
396,France,Premieres Côtes de Blaye,Bordeaux-style White Blend,88.0,"Premieres Côtes de Blaye, France",,,,,
397,France,Premieres Côtes de Bordeaux,Sémillon,87.0,"Premieres Côtes de Bordeaux, France",,,,,
398,France,Puisseguin Saint-Émilion,Merlot,90.0,"Puisseguin Saint-Émilion, France",,,,,
399,France,Puligny-Montrachet,Chardonnay,92.0,"Puligny-Montrachet, France","Puligny-Montrachet, Beaune, Côte-d'Or, Bourgogne-Franche-Comté, France métropolitaine, 21190, France","(46.94497, 4.75393, 0.0)",46.94497,4.75393,0.0
400,France,Pécharmant,Bordeaux-style Red Blend,92.0,"Pécharmant, France","Le Pécharmant, Rue François Couperin, La Défense 1, Quartier Gambetta, Courbevoie, Arrondissement de Nanterre, Hauts-de-Seine, Île-de-France, France métropolitaine, 92400, France","(48.8916709, 2.2540698, 0.0)",48.8916709,2.2540698,0.0
401,France,Périgord,Sauvignon Blanc,83.0,"Périgord, France","Le Périgord, Nontron, Dordogne, Nouvelle-Aquitaine, France métropolitaine, 24630, France","(45.5449404, 1.0413194, 0.0)",45.5449404,1.0413194,0.0
402,France,Quarts de Chaume,Chenin Blanc,93.0,"Quarts de Chaume, France",,,,,
403,France,Quincy,Sauvignon Blanc,88.0,"Quincy, France","Quincy, Vierzon, Cher, Centre-Val de Loire, France métropolitaine, 18120, France","(47.133365, 2.1574605, 0.0)",47.133365,2.1574605,0.0
404,France,Rasteau,Rhône-style Red Blend,89.0,"Rasteau, France","Rasteau, Carpentras, Vaucluse, Provence-Alpes-Côte d'Azur, France métropolitaine, 84110, France","(44.2298319, 4.9856444, 0.0)",44.2298319,4.9856444,0.0
405,France,Reuilly,Sauvignon Blanc,87.0,"Reuilly, France","Reuilly, Évreux, Eure, Normandie, France métropolitaine, 27930, France","(49.0781397, 1.2237997, 0.0)",49.0781397,1.2237997,0.0
406,France,Rivesaltes,White Blend,95.0,"Rivesaltes, France","Rivesaltes, Perpignan, Pyrénées-Orientales, Occitanie, France métropolitaine, 66600, France","(42.7683568, 2.8709277, 0.0)",42.7683568,2.8709277,0.0
407,France,Rivesaltes Rosé,Grenache,87.0,"Rivesaltes Rosé, France","Rivesaltes, Perpignan, Pyrénées-Orientales, Occitanie, France métropolitaine, 66600, France","(42.7683568, 2.8709277, 0.0)",42.7683568,2.8709277,0.0
408,France,Romanée-St.-Vivant,Pinot Noir,93.5,"Romanée-St.-Vivant, France","Climat de Bourgogne - Grand Cru - Romanée-Saint-Vivant, Moulin Baudoin, Vosne-Romanée, Beaune, Côte-d'Or, Bourgogne-Franche-Comté, France métropolitaine, 21700, France","(47.162324600000005, 4.95287344978855, 0.0)",47.162324600000005,4.95287344978855,0.0
409,France,Rosé d'Anjou,Rosé,84.0,"Rosé d'Anjou, France","Rue Rose Red Naomi, La Gabetière, La Baronnerie, Saint-Sylvain-d'Anjou, Verrières-en-Anjou, Angers, Maine-et-Loire, Pays de la Loire, France métropolitaine, 49480, France","(47.4920035, -0.5021085, 0.0)",47.4920035,-0.5021085,0.0
410,France,Rosé de Loire,Rosé,85.0,"Rosé de Loire, France","De La Loire, Route de Lyon, Brives-Charensac, Le Puy-en-Velay, Haute-Loire, Auvergne-Rhône-Alpes, France métropolitaine, 43700, France","(45.047760499999995, 3.928118002100837, 0.0)",45.047760499999995,3.928118002100837,0.0
411,France,Roussette de Savoie,Altesse,90.0,"Roussette de Savoie, France",,,,,
412,France,Rully,Pinot Noir,89.0,"Rully, France","Rully, Senlis, Oise, Hauts-de-France, France métropolitaine, 60810, France","(49.2359777, 2.7280667, 0.0)",49.2359777,2.7280667,0.0
413,France,Régnié,Gamay,88.0,"Régnié, France","Régnié-Durette, Villefranche-sur-Saône, Rhône, Circonscription départementale du Rhône, Auvergne-Rhône-Alpes, France métropolitaine, 69430, France","(46.1384747, 4.6420871, 0.0)",46.1384747,4.6420871,0.0
414,France,Sable de Camargue,Rosé,87.0,"Sable de Camargue, France",,,,,
415,France,Saint Guilhem le Désert,Roussanne,88.0,"Saint Guilhem le Désert, France","Saint-Guilhem-le-Désert, Lodève, Hérault, Occitanie, France métropolitaine, 34150, France","(43.734, 3.54852, 0.0)",43.734,3.54852,0.0
416,France,Saint-Amour,Gamay,88.5,"Saint-Amour, France","Saint-Amour, Lons-le-Saunier, Jura, Bourgogne-Franche-Comté, France métropolitaine, 39160, France","(46.4358751, 5.3421832, 0.0)",46.4358751,5.3421832,0.0
417,France,Saint-Aubin,Pinot Noir,90.0,"Saint-Aubin, France","Saint-Aubin, Montreuil, Pas-de-Calais, Hauts-de-France, France métropolitaine, 62170, France","(50.4573687, 1.6651851, 0.0)",50.4573687,1.6651851,0.0
418,France,Saint-Bris,Sauvignon Blanc,85.0,"Saint-Bris, France","France, Meillonnas, Bourg-en-Bresse, Ain, Auvergne-Rhône-Alpes, France métropolitaine, 01370, France","(46.2331191, 5.3544518, 0.0)",46.2331191,5.3544518,0.0
419,France,Saint-Chinian,Syrah-Mourvèdre,90.5,"Saint-Chinian, France","Saint-Chinian, Béziers, Hérault, Occitanie, France métropolitaine, 34360, France","(43.4215, 2.94677, 0.0)",43.4215,2.94677,0.0
420,France,Saint-Chinian-Roquebrun,Rhône-style Red Blend,89.0,"Saint-Chinian-Roquebrun, France",,,,,
421,France,Saint-Croix-du-Mont,Bordeaux-style White Blend,89.5,"Saint-Croix-du-Mont, France","La Croix du Mont, Clamanges, Épernay, Marne, Grand Est, France métropolitaine, 51130, France","(48.8180566, 4.1122259, 0.0)",48.8180566,4.1122259,0.0
422,France,Saint-Estèphe,Bordeaux-style Red Blend,91.0,"Saint-Estèphe, France","Saint-Estèphe, Nontron, Dordogne, Nouvelle-Aquitaine, France métropolitaine, 24360, France","(45.5925, 0.6633333, 0.0)",45.5925,0.6633333,0.0
423,France,Saint-Georges-Saint-Émilion,Bordeaux-style Red Blend,89.5,"Saint-Georges-Saint-Émilion, France",,,,,
424,France,Saint-Joseph,Syrah,90.5,"Saint-Joseph, France","Saint-Joseph, Cherbourg, Manche, Normandie, France métropolitaine, 50700, France","(49.5344534, -1.529802, 0.0)",49.5344534,-1.529802,0.0
425,France,Saint-Julien,Bordeaux-style Red Blend,93.0,"Saint-Julien, France","Saint-Julien, Dijon, Côte-d'Or, Bourgogne-Franche-Comté, France métropolitaine, 21490, France","(47.4019947, 5.1364639, 0.0)",47.4019947,5.1364639,0.0
426,France,Saint-Mont,White Blend,90.0,"Saint-Mont, France","Saint-Mont, Mirande, Gers, Occitanie, France métropolitaine, 32400, France","(43.6519486, -0.1506191, 0.0)",43.6519486,-0.1506191,0.0
427,France,Saint-Nicolas-de-Bourgueil,Rosé,89.5,"Saint-Nicolas-de-Bourgueil, France","Saint-Nicolas-de-Bourgueil, Chinon, Indre-et-Loire, Centre-Val de Loire, France métropolitaine, 37140, France","(47.2843794, 0.1256895, 0.0)",47.2843794,0.1256895,0.0
428,France,Saint-Péray,Roussanne-Marsanne,91.0,"Saint-Péray, France","Saint-Péray, Tournon-sur-Rhône, Ardèche, Auvergne-Rhône-Alpes, France métropolitaine, 07130, France","(44.9454417, 4.8430943, 0.0)",44.9454417,4.8430943,0.0
429,France,Saint-Romain,Chardonnay,88.5,"Saint-Romain, France","Saint-Romain, Beaune, Côte-d'Or, Bourgogne-Franche-Comté, France métropolitaine, 21190, France","(46.9982395, 4.7083847, 0.0)",46.9982395,4.7083847,0.0
430,France,Saint-Véran,Chardonnay,88.0,"Saint-Véran, France","Saint-Véran, Briançon, Hautes-Alpes, Provence-Alpes-Côte d'Azur, France métropolitaine, 05350, France","(44.6993395, 6.8687131, 0.0)",44.6993395,6.8687131,0.0
431,France,Saint-Émilion,Merlot,90.0,"Saint-Émilion, France","Saint-Émilion, Libourne, Nouvelle-Aquitaine, France métropolitaine, 33330, France","(44.8931452, -0.1560662, 0.0)",44.8931452,-0.1560662,0.0
432,France,Sainte-Foy Bordeaux,Bordeaux-style White Blend,89.0,"Sainte-Foy Bordeaux, France",,,,,
433,France,Sancerre,Sauvignon Blanc,90.0,"Sancerre, France","Sancerre, Bourges, Cher, Centre-Val de Loire, France métropolitaine, 18300, France","(47.3307251, 2.8390333, 0.0)",47.3307251,2.8390333,0.0
434,France,Santenay,Pinot Noir,89.0,"Santenay, France","Santenay, Beaune, Côte-d'Or, Bourgogne-Franche-Comté, France métropolitaine, 21590, France","(46.9115071, 4.6996302, 0.0)",46.9115071,4.6996302,0.0
435,France,Saumur,Sparkling Blend,90.0,"Saumur, France","Saumur, Maine-et-Loire, Pays de la Loire, France métropolitaine, 49400, France","(47.2596224, -0.0785177, 0.0)",47.2596224,-0.0785177,0.0
436,France,Saumur-Champigny,Cabernet Franc,90.0,"Saumur-Champigny, France","Route de Saumur, Les Trois Maillets, Souzay-Champigny, Saumur, Maine-et-Loire, Pays de la Loire, France métropolitaine, 49400, France","(47.2332207, 0.0044111, 0.0)",47.2332207,0.0044111,0.0
437,France,Saussignac,Bordeaux-style White Blend,90.0,"Saussignac, France","Saussignac, Bergerac, Dordogne, Nouvelle-Aquitaine, France métropolitaine, 24240, France","(44.8014957, 0.3264929, 0.0)",44.8014957,0.3264929,0.0
438,France,Sauternes,Bordeaux-style White Blend,92.0,"Sauternes, France","Sauternes, Langon, Nouvelle-Aquitaine, France métropolitaine, 33210, France","(44.5327805, -0.341386, 0.0)",44.5327805,-0.341386,0.0
439,France,Savennières,Chenin Blanc,92.0,"Savennières, France","Savennières, Angers, Maine-et-Loire, Pays de la Loire, France métropolitaine, 49170, France","(47.3830917, -0.6570828, 0.0)",47.3830917,-0.6570828,0.0
440,France,Savennières-Roche-Aux-Moines,Chenin Blanc,93.0,"Savennières-Roche-Aux-Moines, France",,,,,
441,France,Savigny-lès-Beaune,Pinot Noir,90.0,"Savigny-lès-Beaune, France","Savigny-lès-Beaune, Beaune, Côte-d'Or, Bourgogne-Franche-Comté, France métropolitaine, 21420, France","(47.0628612, 4.8185532, 0.0)",47.0628612,4.8185532,0.0
442,France,Savoie,White Blend,88.0,"Savoie, France","Savoie, Auvergne-Rhône-Alpes, France métropolitaine, France","(45.494895150000005, 6.384660381375652, 0.0)",45.494895150000005,6.384660381375652,0.0
443,France,St.-Romain,Chardonnay,87.0,"St.-Romain, France","Saint-Romain, Beaune, Côte-d'Or, Bourgogne-Franche-Comté, France métropolitaine, 21190, France","(46.9982395, 4.7083847, 0.0)",46.9982395,4.7083847,0.0
444,France,Tavel,Rosé,90.0,"Tavel, France","Tavel, Nîmes, Gard, Occitanie, France métropolitaine, 30126, France","(44.0127055, 4.6982216, 0.0)",44.0127055,4.6982216,0.0
445,France,Terrasses du Larzac,Rhône-style Red Blend,87.0,"Terrasses du Larzac, France","Terrasses du Larzac, Chemin des Combes, Les Moulins, Arboras, Lodève, Hérault, Occitanie, France métropolitaine, 34150, France","(43.7152761, 3.488880169252874, 0.0)",43.7152761,3.488880169252874,0.0
446,France,Touraine,Sauvignon Blanc,89.0,"Touraine, France","Touraine, Rue de la Touraine, Fontaine Lestang - Bagatelle - Papus - Tabar - Bordelongue, Toulouse Rive Gauche, Toulouse, Haute-Garonne, Occitanie, France métropolitaine, 31100, France","(43.573708, 1.4139439, 0.0)",43.573708,1.4139439,0.0
447,France,Vacqueyras,Rhône-style Red Blend,89.5,"Vacqueyras, France","Vacqueyras, Carpentras, Vaucluse, Provence-Alpes-Côte d'Azur, France métropolitaine, 84190, France","(44.1382621, 4.9823958, 0.0)",44.1382621,4.9823958,0.0
448,France,Val de Loire,White Blend,90.0,"Val de Loire, France","Val de Loire, Boulevard Heurteloup, Blaise Pascal, Blanqui-Mirabeau, Tours, Indre-et-Loire, Centre-Val de Loire, France métropolitaine, 37000, France","(47.3907435, 0.6944195, 0.0)",47.3907435,0.6944195,0.0
449,France,Vallée du Paradis,Rhône-style Red Blend,86.0,"Vallée du Paradis, France",,,,,
450,France,Var,Viognier,89.0,"Var, France","Var, Provence-Alpes-Côte d'Azur, France métropolitaine, France","(43.4173592, 6.2664620128919, 0.0)",43.4173592,6.2664620128919,0.0
451,France,Ventoux,Syrah-Grenache,88.0,"Ventoux, France","Ventoux, Les Ulis, Palaiseau, Essonne, Île-de-France, France métropolitaine, 91940, France","(48.677808150000004, 2.1768592308045696, 0.0)",48.677808150000004,2.1768592308045696,0.0
452,France,Vin Doux Naturel Rasteau,Grenache,90.0,"Vin Doux Naturel Rasteau, France",,,,,
453,France,Vin Mousseux,Chardonnay,83.0,"Vin Mousseux, France",,,,,
454,France,Vin de France,White Blend,92.0,"Vin de France, France","Vignes, Pau, Pyrénées-Atlantiques, Nouvelle-Aquitaine, France métropolitaine, 64410, France","(43.5264559, -0.4121921, 0.0)",43.5264559,-0.4121921,0.0
455,France,Vin de Liqueur,Tannat,90.0,"Vin de Liqueur, France",,,,,
456,France,Vin de Pays Cité de Carcassonne,Rosé,87.0,"Vin de Pays Cité de Carcassonne, France",,,,,
457,France,Vin de Pays Var,Viognier-Chardonnay,88.0,"Vin de Pays Var, France",,,,,
458,France,Vin de Pays d'Oc,White Blend,91.0,"Vin de Pays d'Oc, France",,,,,
459,France,Vin de Pays de France,Sauvignon Blanc,84.0,"Vin de Pays de France, France",,,,,
460,France,Vin de Pays de L'Aude,Shiraz,84.0,"Vin de Pays de L'Aude, France",,,,,
461,France,Vin de Pays de L'Herault,Rhône-style Red Blend,87.0,"Vin de Pays de L'Herault, France",,,,,
462,France,Vin de Pays de Montferrand,Roussanne,86.0,"Vin de Pays de Montferrand, France",,,,,
463,France,Vin de Pays de Vaucluse,Rosé,89.0,"Vin de Pays de Vaucluse, France",,,,,
464,France,Vin de Pays de l'Ile de Beauté,Pinot Noir,83.0,"Vin de Pays de l'Ile de Beauté, France",,,,,
465,France,Vin de Pays de la Haute Vallée du Gassac,Rhône-style Red Blend,92.0,"Vin de Pays de la Haute Vallée du Gassac, France",,,,,
466,France,Vin de Pays de la Méditerranée,Syrah,91.0,"Vin de Pays de la Méditerranée, France",,,,,
467,France,Vin de Pays des Alpilles,White Blend,91.0,"Vin de Pays des Alpilles, France",,,,,
468,France,Vin de Pays des Coteaux de Bessilles,Rhône-style Red Blend,85.0,"Vin de Pays des Coteaux de Bessilles, France",,,,,
469,France,Vin de Pays des Cévennes,Viognier,88.0,"Vin de Pays des Cévennes, France",,,,,
470,France,Vin de Pays des Côtes Catalanes,Viognier,87.0,"Vin de Pays des Côtes Catalanes, France",,,,,
471,France,Vin de Pays des Côtes de Gascogne,White Blend,88.5,"Vin de Pays des Côtes de Gascogne, France",,,,,
472,France,Vin de Pays des Maures,Rosé,86.0,"Vin de Pays des Maures, France",,,,,
473,France,Vin de Pays des Portes de Méditerranée,Viognier,85.0,"Vin de Pays des Portes de Méditerranée, France",,,,,
474,France,Vin de Pays du Comté Tolosan,Syrah,89.0,"Vin de Pays du Comté Tolosan, France",,,,,
475,France,Vin de Pays du Gard,Rosé,88.0,"Vin de Pays du Gard, France",,,,,
476,France,Vin de Pays du Jardin de la France,Sauvignon Blanc,85.0,"Vin de Pays du Jardin de la France, France",,,,,
477,France,Vin de Pays du Lot,White Blend,88.0,"Vin de Pays du Lot, France",,,,,
478,France,Vin de Pays du Val de Cesse,Red Blend,89.0,"Vin de Pays du Val de Cesse, France",,,,,
479,France,Vin de Pays du Val de Loire,Sauvignon Blanc,86.0,"Vin de Pays du Val de Loire, France",,,,,
480,France,Vin de Savoie,Roussanne,89.0,"Vin de Savoie, France","Musée régional de la vigne et du vin, Avenue Edouard Herriot, Les Calloudes, Montmélian, Chambéry, Savoie, Auvergne-Rhône-Alpes, France métropolitaine, 73800, France","(45.5002411, 6.0608775, 0.0)",45.5002411,6.0608775,0.0
481,France,Vin de Table Francais,Red Blend,89.0,"Vin de Table Francais, France",,,,,
482,France,Viré-Clessé,Chardonnay,88.0,"Viré-Clessé, France","La Maison du Viré-Clessé, Rue du 8 Mai 1945, Chez Petit, Vérizet, Viré, Mâcon, Saône-et-Loire, Bourgogne-Franche-Comté, France métropolitaine, 71260, France","(46.44937835, 4.843668457572106, 0.0)",46.44937835,4.843668457572106,0.0
483,France,Volnay,Pinot Noir,92.0,"Volnay, France","Volnay, Beaune, Côte-d'Or, Bourgogne-Franche-Comté, France métropolitaine, 21190, France","(47.0016955, 4.7811102, 0.0)",47.0016955,4.7811102,0.0
484,France,Vosne-Romanée,Pinot Noir,92.0,"Vosne-Romanée, France","Vosne-Romanée, Beaune, Côte-d'Or, Bourgogne-Franche-Comté, France métropolitaine, 21700, France","(47.1585795, 4.9547623, 0.0)",47.1585795,4.9547623,0.0
485,France,Vougeot,Pinot Noir,92.0,"Vougeot, France","Vougeot, Beaune, Côte-d'Or, Bourgogne-Franche-Comté, France métropolitaine, 21640, France","(47.1772352, 4.9643152, 0.0)",47.1772352,4.9643152,0.0
486,France,Vouvray,Chenin Blanc,88.0,"Vouvray, France","Vouvray, Tours, Indre-et-Loire, Centre-Val de Loire, France métropolitaine, 37210, France","(47.4136687, 0.7998446, 0.0)",47.4136687,0.7998446,0.0
487,Italy,Abruzzo,White Blend,90.0,"Abruzzo, Italy","Abruzzo, Italia","(42.227681, 13.854983, 0.0)",42.227681,13.854983,0.0
488,Italy,Aglianico d'Irpinia,Red Blend,87.0,"Aglianico d'Irpinia, Italy",,,,,
489,Italy,Aglianico del Beneventano,Aglianico,90.0,"Aglianico del Beneventano, Italy",,,,,
490,Italy,Aglianico del Taburno,Aglianico,88.0,"Aglianico del Taburno, Italy",,,,,
491,Italy,Aglianico del Vulture,Aglianico,89.5,"Aglianico del Vulture, Italy",,,,,
492,Italy,Albana di Romagna,Albana,90.0,"Albana di Romagna, Italy","Viale Albana, San Lorenzo in Strada, Riccione, Rimini, Emilia-Romagna, 47838, Italia","(44.0060323, 12.6204077, 0.0)",44.0060323,12.6204077,0.0
493,Italy,Alcamo,White Blend,90.0,"Alcamo, Italy","Alcamo, Trapani, Sicilia, 91011, Italia","(37.9766497, 12.9626735, 0.0)",37.9766497,12.9626735,0.0
494,Italy,Aleatico dell'Elba,Aleatico,86.0,"Aleatico dell'Elba, Italy",,,,,
495,Italy,Alghero,Torbato,92.0,"Alghero, Italy","L'Alguer/Alghero, Sassari, Sardegna, 07041, Italia","(40.5600205, 8.3151473, 0.0)",40.5600205,8.3151473,0.0
496,Italy,Alta Langa,Sparkling Blend,90.0,"Alta Langa, Italy","Strada Comunale Langa O Foiano, Camo, Santo Stefano Belbo, Asti, Piemonte, 12058, Italia","(44.678428, 8.2231367, 0.0)",44.678428,8.2231367,0.0
497,Italy,Alta Valle della Greve,Sangiovese,91.0,"Alta Valle della Greve, Italy",,,,,
498,Italy,Alto Adige,White Blend,94.0,"Alto Adige, Italy","Bolzano - Bozen, Trentino-Alto Adige/Südtirol, Italia","(46.65594215, 11.229637264169462, 0.0)",46.65594215,11.229637264169462,0.0
499,Italy,Alto Adige Terlano,White Blend,90.0,"Alto Adige Terlano, Italy",,,,,
500,Italy,Alto Adige Valle Isarco,Veltliner,91.0,"Alto Adige Valle Isarco, Italy","Am Hohen Feld - Via Pra Alto, Roßlauf, Brixen - Bressanone, Eisacktal - Valle Isarco, Bolzano - Bozen, Trentino-Alto Adige/Südtirol, 39042, Italia","(46.7211148, 11.6528296, 0.0)",46.7211148,11.6528296,0.0
501,Italy,Amarone della Valpolicella,Red Blend,90.0,"Amarone della Valpolicella, Italy",,,,,
502,Italy,Amarone della Valpolicella Classico,Red Blend,90.0,"Amarone della Valpolicella Classico, Italy",,,,,
503,Italy,Amarone della Valpolicella Valpantena,Red Blend,92.0,"Amarone della Valpolicella Valpantena, Italy",,,,,
504,Italy,Asolo Prosecco Superiore,Glera,89.5,"Asolo Prosecco Superiore, Italy",,,,,
505,Italy,Asti,Moscato,89.0,"Asti, Italy","Asti, Piemonte, Italia","(44.826012649999996, 8.202686328987273, 0.0)",44.826012649999996,8.202686328987273,0.0
506,Italy,Barbaresco,Nebbiolo,90.0,"Barbaresco, Italy","Barbaresco, Cuneo, Piemonte, Italia","(44.7254469, 8.0806959, 0.0)",44.7254469,8.0806959,0.0
507,Italy,Barbera d'Alba,Red Blend,88.0,"Barbera d'Alba, Italy",,,,,
508,Italy,Barbera d'Alba Superiore,Barbera,88.0,"Barbera d'Alba Superiore, Italy",,,,,
509,Italy,Barbera d'Asti,Barbera,88.0,"Barbera d'Asti, Italy",,,,,
510,Italy,Barbera d'Asti Superiore,Barbera,88.0,"Barbera d'Asti Superiore, Italy",,,,,
511,Italy,Barbera d'Asti Superiore Nizza,Barbera,89.0,"Barbera d'Asti Superiore Nizza, Italy",,,,,
512,Italy,Barbera del Monferrato,Barbera,87.0,"Barbera del Monferrato, Italy",,,,,
513,Italy,Barbera del Monferrato Superiore,Barbera,88.5,"Barbera del Monferrato Superiore, Italy",,,,,
514,Italy,Barbera di Piemonte,Barbera,86.0,"Barbera di Piemonte, Italy","Barbera, Rittana, Cuneo, Piemonte, 12010, Italia","(44.3641374, 7.3660814, 0.0)",44.3641374,7.3660814,0.0
515,Italy,Barco Reale di Carmignano,Red Blend,87.5,"Barco Reale di Carmignano, Italy","Barco Reale, Piazza Vittorio Emanuele II, Serra, Carmignano, Prato, Toscana, 51130, Italia","(43.8139111, 11.019155, 0.0)",43.8139111,11.019155,0.0
516,Italy,Bardolino,Rosé,87.5,"Bardolino, Italy","Bardolino, Verona, Veneto, 37011, Italia","(45.5475595, 10.7242145, 0.0)",45.5475595,10.7242145,0.0
517,Italy,Bardolino Chiaretto,Rosé,87.0,"Bardolino Chiaretto, Italy",,,,,
518,Italy,Bardolino Classico,Red Blend,86.0,"Bardolino Classico, Italy",,,,,
519,Italy,Bardolino Classico Superiore,Red Blend,86.0,"Bardolino Classico Superiore, Italy",,,,,
520,Italy,Bardolino Superiore,Red Blend,89.0,"Bardolino Superiore, Italy",,,,,
521,Italy,Barolo,Nebbiolo,91.0,"Barolo, Italy","Barolo, Cuneo, Piemonte, Italia","(44.6108408, 7.9428448, 0.0)",44.6108408,7.9428448,0.0
522,Italy,Basilicata,White Blend,87.0,"Basilicata, Italy","Basilicata, Italia","(40.500571, 16.081953, 0.0)",40.500571,16.081953,0.0
523,Italy,Benaco Bresciano,Red Blend,84.0,"Benaco Bresciano, Italy","Lago di Garda, Villa Feltrinelli, Gargnano, Comunità montana parco alto Garda bresciano, Brescia, Lombardia, Italia","(45.66131875, 10.685104344696601, 0.0)",45.66131875,10.685104344696601,0.0
524,Italy,Beneventano,White Blend,88.0,"Beneventano, Italy","Beneventano, Via Nazionale Modica Ispica, Zona Artigianale, Casa Malvacia, Modica, Ragusa, Sicilia, 97015, Italia","(36.8100217, 14.8175347, 0.0)",36.8100217,14.8175347,0.0
525,Italy,Bianco di Custoza,White Blend,88.0,"Bianco di Custoza, Italy",,,,,
526,Italy,Biferno Rosso,Red Blend,89.0,"Biferno Rosso, Italy",,,,,
527,Italy,Boca,Red Blend,93.0,"Boca, Italy","Boca, Novara, Piemonte, Italia","(45.678969, 8.408726, 0.0)",45.678969,8.408726,0.0
528,Italy,Bolgheri,White Blend,94.0,"Bolgheri, Italy","Bolgheri, Castagneto Carducci, Livorno, Toscana, 57022, Italia","(43.2340065, 10.6179334, 0.0)",43.2340065,10.6179334,0.0
529,Italy,Bolgheri Sassicaia,Red Blend,97.0,"Bolgheri Sassicaia, Italy",,,,,
530,Italy,Bolgheri Superiore,Red Blend,91.0,"Bolgheri Superiore, Italy",,,,,
531,Italy,Brachetto d'Acqui,Sangiovese,87.0,"Brachetto d'Acqui, Italy",,,,,
532,Italy,Bramaterra,Red Blend,93.0,"Bramaterra, Italy","Bramaterra, Sostegno, Biella, Piemonte, 13868, Italia","(45.6312734, 8.3012197, 0.0)",45.6312734,8.3012197,0.0
533,Italy,Breganze,Vespaiolo,92.0,"Breganze, Italy","Breganze, Vicenza, Veneto, 36042, Italia","(45.7081441, 11.5647668, 0.0)",45.7081441,11.5647668,0.0
534,Italy,Brindisi,Red Blend,85.0,"Brindisi, Italy","Brindisi, Puglia, Italia","(40.6362271, 17.688500723698695, 0.0)",40.6362271,17.688500723698695,0.0
535,Italy,Brunello di Montalcino,Sangiovese Grosso,91.0,"Brunello di Montalcino, Italy","Strada Provinciale del Brunello, I Colli, Montalcino, Siena, Toscana, 58038, Italia","(43.0525059, 11.5049862, 0.0)",43.0525059,11.5049862,0.0
536,Italy,Cacc’e Mmitte di Lucera,Red Blend,91.0,"Cacc’e Mmitte di Lucera, Italy",,,,,
537,Italy,Calabria,Red Blend,89.0,"Calabria, Italy","Calabria, Italia","(39.0565974, 16.5249864, 0.0)",39.0565974,16.5249864,0.0
538,Italy,Campania,White Blend,93.0,"Campania, Italy","Campania, Italia","(40.860672, 14.843984, 0.0)",40.860672,14.843984,0.0
539,Italy,Campi Flegrei,Piedirosso,88.0,"Campi Flegrei, Italy","Campi Flegrei, Via San Gennaro Agnano, Rione La Solfatara, Pozzuoli, Napoli, Campania, 80078, Italia","(40.8274575, 14.1402297, 0.0)",40.8274575,14.1402297,0.0
540,Italy,Cannonau di Sardegna,Red Blend,89.0,"Cannonau di Sardegna, Italy",,,,,
541,Italy,Carema,Nebbiolo,94.0,"Carema, Italy","Carema, Provincia di Torino, Piemonte, Italia","(45.5833024, 7.8104064, 0.0)",45.5833024,7.8104064,0.0
542,Italy,Carignano del Sulcis,Rosé,90.0,"Carignano del Sulcis, Italy",,,,,
543,Italy,Carmignano,Sangiovese,89.0,"Carmignano, Italy","Carmignano, Prato, Toscana, Italia","(43.8140654, 11.0190297, 0.0)",43.8140654,11.0190297,0.0
544,Italy,Casorzo,Red Blend,84.0,"Casorzo, Italy","Casorzo, Asti, Piemonte, Italia","(45.0233901, 8.3345031, 0.0)",45.0233901,8.3345031,0.0
545,Italy,Castel del Monte,White Blend,88.5,"Castel del Monte, Italy","Castel del Monte, Strada Provinciale di Castel del Monte, Masseria del Castello, Andria, Barletta-Andria-Trani, Puglia, Italia","(41.08474385, 16.27094119405634, 0.0)",41.08474385,16.27094119405634,0.0
546,Italy,Catalanesca del Monte Somma,Catalanesca,89.0,"Catalanesca del Monte Somma, Italy",,,,,
547,Italy,Cerasuolo d'Abruzzo,Rosé,88.0,"Cerasuolo d'Abruzzo, Italy",,,,,
